222741.000,4911.280727,N,12307.016717,W,2,36,0.48,4.606,M,-16.830,M,,*4B
$GNRMC,222741.000,A,4911.280727,N,12307.016717,W,0.004,082.25,150325,,,D,V*20
$GNGLL,4911.280727,N,12307.016717,W,222741.000,A,D*54
$GNVTG,082.25,T,,M,0.004,N,0.008,K,D*27
$GNGSA,A,3,05,06,11,12,20,25,28,29,31,,,,0.81,0.48,0.65,1*01
$GNGSA,A,3,65,66,72,73,79,80,81,82,88,,,,0.81,0.48,0.65,2*03
$GNGSA,A,3,02,15,27,30,34,36,11,,,,,,0.81,0.48,0.65,3*07
$GNGSA,A,3,06,14,16,27,28,30,33,36,39,41,45,,0.81,0.48,0.65,4*01
$GNGSA,A,3,,,,,,,,,,,,,0.81,0.48,0.65,5*03
$GPGSV,3,1,12,05,28,152,32,06,20,051,33,09,02,040,20,11,51,059,41,1*6D
$GPGSV,3,2,12,12,52,162,25,18,,,22,20,48,108,40,25,69,245,42,1*57
$GPGSV,3,3,12,28,23,296,35,29,44,282,46,31,15,319,33,46,33,187,40,1*63
$GPGSV,2,1,06,06,20,051,33,09,02,040,26,11,51,059,36,18,,,27,8*52
$GPGSV,2,2,06,25,69,245,39,28,23,296,22,8*6C
$GLGSV,3,1,09,65,20,048,32,66,10,096,27,72,05,356,17,73,17,329,20,1*7A
$GLGSV,3,2,09,79,39,186,39,80,62,280,36,81,59,034,32,82,60,268,44,1*71
$GLGSV,3,3,09,88,08,057,34,1*4C
$GAGSV,2,1,06,02,45,153,33,15,17,221,20,27,22,311,28,30,70,274,36,7*7F
$GAGSV,2,2,06,34,68,204,42,36,52,055,36,7*7B
$GAGSV,2,1,07,02,45,153,28,11,05,047,22,15,17,221,31,27,22,311,31,1*7C
$GAGSV,2,2,07,30,70,274,42,34,68,204,29,36,52,055,36,1*42
$GBGSV,3,1,11,06,11,333,23,14,09,026,26,16,16,326,25,27,66,062,34,1*7A
$GBGSV,3,2,11,28,21,070,30,30,56,262,43,33,17,050,30,36,45,276,44,1*7C
$GBGSV,3,3,11,39,19,321,29,41,18,100,36,45,14,321,30,1*40
$GBGSV,2,1,08,27,66,062,27,28,21,070,31,30,56,262,45,33,17,050,37,5*71
$GBGSV,2,2,08,36,45,276,40,39,19,321,24,41,18,100,32,45,14,321,26,5*71
$GQGSV,1,1,00,1*65
$GQGSV,1,1,00,8*6C
$GNGGA,222742.000,4911.280727,N,12307.016716,W,2,36,0.48,4.606,M,-16.829,M,,*41
$GNRMC,222742.000,A,4911.280727,N,12307.016716,W,0.001,082.25,150325,,,D,V*27
$GNGLL,4911.280727,N,12307.016716,W,222742.000,A,D*56
$GNVTG,082.25,T,,M,0.001,N,0.002,K,D*28
$GNGSA,A,3,05,06,11,12,20,25,28,29,31,,,,0.81,0.48,0.65,1*01
$GNGSA,A,3,65,66,72,73,79,80,81,82,88,,,,0.81,0.48,0.65,2*03
$GNGSA,A,3,02,15,27,30,34,36,11,,,,,,0.81,0.48,0.65,3*07
$GNGSA,A,3,06,14,16,27,28,30,33,36,39,41,45,,0.81,0.48,0.65,4*01
$GNGSA,A,3,,,,,,,,,,,,,0.81,0.48,0.65,5*03
$GPGSV,3,1,12,05,29,152,31,06,20,051,33,09,02,040,19,11,51,059,41,1*65
$GPGSV,3,2,12,12,52,162,25,18,,,22,20,48,108,40,25,69,245,42,1*57
$GPGSV,3,3,12,28,23,296,36,29,44,282,45,31,15,319,33,46,33,187,40,1*63
$GPGSV,2,1,06,06,20,051,33,09,02,040,26,11,51,059,36,18,,,27,8*52
$GPGSV,2,2,06,25,69,245,39,28,23,296,21,8*6F
$GLGSV,3,1,09,65,20,048,32,66,10,096,26,72,05,356,18,73,17,329,20,1*74
$GLGSV,3,2,09,79,39,186,39,80,62,280,37,81,59,034,31,82,60,268,44,1*73
$GLGSV,3,3,09,88,08,057,35,1*4D
$GAGSV,2,1,06,02,45,153,34,15,17,221,21,27,22,311,28,30,70,274,36,7*79
$GAGSV,2,2,06,34,68,204,42,36,52,055,35,7*78
$GAGSV,2,1,07,02,45,153,29,11,05,047,22,15,17,221,30,27,22,311,32,1*7F
$GAGSV,2,2,07,30,70,274,42,34,68,204,29,36,52,055,37,1*43
$GBGSV,3,1,11,06,11,333,24,14,09,026,28,16,16,326,25,27,66,062,35,1*72
$GBGSV,3,2,11,28,21,070,30,30,56,262,43,33,17,050,30,36,45,276,44,1*7C
$GBGSV,3,3,11,39,19,321,29,41,18,100,35,45,14,321,30,1*43
$GBGSV,2,1,08,27,66,062,27,28,21,070,31,30,56,262,45,33,17,050,37,5*71
$GBGSV,2,2,08,36,45,276,40,39,19,321,24,41,18,100,30,45,14,321,26,5*73
$GQGSV,1,1,00,1*65
$GQGSV,1,1,00,8*6C
$GNGGA,222743.000,4911.280726,N,12307.016715,W,2,36,0.48,4.607,M,-16.829,M,,*43
$GNRMC,222743.000,A,4911.280726,N,12307.016715,W,0.007,082.25,150325,,,D,V*22
$GNGLL,4911.280726,N,12307.016715,W,222743.000,A,D*55
$GNVTG,082.25,T,,M,0.007,N,0.012,K,D*2F
$GNGSA,A,3,05,06,11,12,20,25,28,29,31,,,,0.82,0.48,0.67,1*00
$GNGSA,A,3,65,66,72,73,79,80,81,82,88,,,,0.82,0.48,0.67,2*02
$GNGSA,A,3,02,15,27,30,34,36,11,,,,,,0.82,0.48,0.67,3*06
$GNGSA,A,3,06,14,16,27,28,30,33,36,39,41,45,,0.82,0.48,0.67,4*00
$GNGSA,A,3,,,,,,,,,,,,,0.82,0.48,0.67,5*02
$GPGSV,3,1,12,05,29,152,31,06,20,051,32,09,02,040,19,11,51,059,41,1*64
$GPGSV,3,2,12,12,52,162,25,18,,,22,20,48,108,39,25,69,245,42,1*59
$GPGSV,3,3,12,28,23,296,36,29,44,282,45,31,15,319,32,46,33,187,40,1*62
$GPGSV,2,1,06,06,20,051,33,09,02,040,25,11,51,059,35,18,,,26,8*53
$GPGSV,2,2,06,25,69,245,39,28,23,296,22,8*6C
$GLGSV,3,1,09,65,20,048,32,66,10,096,27,72,05,356,17,73,17,329,20,1*7A
$GLGSV,3,2,09,79,39,186,38,80,62,280,36,81,59,034,32,82,60,268,44,1*70
$GLGSV,3,3,09,88,08,057,34,1*4C
$GAGSV,2,1,06,02,45,153,33,15,17,221,20,27,22,311,27,30,70,274,37,7*71
$GAGSV,2,2,06,34,68,204,41,36,52,055,35,7*7B
$GAGSV,2,1,07,02,45,153,30,11,05,047,22,15,17,221,30,27,22,311,31,1*74
$GAGSV,2,2,07,30,70,274,42,34,68,204,30,36,52,055,36,1*4A
$GBGSV,3,1,11,06,11,333,22,14,09,026,27,16,16,326,26,27,66,062,35,1*78
$GBGSV,3,2,11,28,21,070,30,30,56,262,43,33,17,050,30,36,45,276,44,1*7C
$GBGSV,3,3,11,39,19,321,29,41,18,100,36,45,14,321,31,1*41
$GBGSV,2,1,08,27,66,062,27,28,21,070,30,30,56,262,45,33,17,050,36,5*71
$GBGSV,2,2,08,36,45,276,40,39,19,321,23,41,18,100,30,45,14,321,25,5*77
$GQGSV,1,1,00,1*65
$GQGSV,1,1,00,8*6C
$GNGGA,222744.000,4911.280725,N,12307.016714,W,2,36,0.48,4.609,M,-16.830,M,,*40
$GNRMC,222744.000,A,4911.280725,N,12307.016714,W,0.002,082.25,150325,,,D,V*22
$GNGLL,4911.280725,N,12307.016714,W,222744.000,A,D*50
$GNVTG,082.25,T,,M,0.002,N,0.003,K,D*2A
$GNGSA,A,3,05,06,11,12,20,25,28,29,31,,,,0.82,0.48,0.67,1*00
$GNGSA,A,3,65,66,72,73,79,80,81,82,88,,,,0.82,0.48,0.67,2*02
$GNGSA,A,3,02,15,27,30,34,36,11,,,,,,0.82,0.48,0.67,3*06
$GNGSA,A,3,06,14,16,27,28,30,33,36,39,41,45,,0.82,0.48,0.67,4*00
$GNGSA,A,3,,,,,,,,,,,,,0.82,0.48,0.67,5*02
$GPGSV,3,1,12,05,29,152,30,06,20,051,31,09,02,040,18,11,51,059,41,1*67
$GPGSV,3,2,12,12,52,162,24,18,,,22,20,48,108,39,25,69,245,42,1*58
$GPGSV,3,3,12,28,23,296,36,29,44,282,46,31,15,319,32,46,33,187,40,1*61
$GPGSV,2,1,06,06,20,051,34,09,02,040,25,11,51,059,35,18,,,26,8*54
$GPGSV,2,2,06,25,69,245,39,28,23,296,20,8*6E
$GLGSV,3,1,09,65,20,048,31,66,10,096,27,72,05,356,17,73,17,329,20,1*79
$GLGSV,3,2,09,79,39,186,39,80,62,280,36,81,59,034,32,82,60,268,44,1*71
$GLGSV,3,3,09,88,08,057,34,1*4C
$GAGSV,2,1,06,02,45,153,34,15,17,221,19,27,22,311,28,30,70,273,37,7*74
$GAGSV,2,2,06,34,68,204,41,36,52,055,35,7*7B
$GAGSV,2,1,07,02,45,153,28,11,05,047,21,15,17,221,30,27,22,311,32,1*7D
$GAGSV,2,2,07,30,70,273,42,34,68,204,29,36,52,055,37,1*44
$GBGSV,3,1,11,06,11,333,23,14,09,026,28,16,16,326,26,27,66,062,35,1*76
$GBGSV,3,2,11,28,21,070,30,30,56,263,43,33,17,050,30,36,45,276,44,1*7D
$GBGSV,3,3,11,39,19,321,30,41,18,100,36,45,14,321,31,1*49
$GBGSV,2,1,08,27,66,062,28,28,21,070,31,30,56,263,45,33,17,050,36,5*7E
$GBGSV,2,2,08,36,45,276,40,39,19,321,24,41,18,100,30,45,14,321,26,5*73
$GQGSV,1,1,00,1*65
$GQGSV,1,1,00,8*6C
$GNGGA,222745.000,4911.280726,N,12307.016714,W,2,36,0.47,4.609,M,-16.830,M,,*4D
$GNRMC,222745.000,A,4911.280726,N,12307.016714,W,0.006,082.25,150325,,,D,V*24
$GNGLL,4911.280726,N,12307.016714,W,222745.000,A,D*52
$GNVTG,082.25,T,,M,0.006,N,0.010,K,D*2C
$GNGSA,A,3,05,06,11,12,20,25,28,29,31,,,,0.81,0.47,0.66,1*0D
$GNGSA,A,3,65,66,72,73,79,80,81,82,88,,,,0.81,0.47,0.66,2*0F
$GNGSA,A,3,02,15,27,30,34,36,11,,,,,,0.81,0.47,0.66,3*0B
$GNGSA,A,3,06,14,16,27,28,30,33,36,39,41,45,,0.81,0.47,0.66,4*0D
$GNGSA,A,3,,,,,,,,,,,,,0.81,0.47,0.66,5*0F
$GPGSV,3,1,12,05,29,152,31,06,20,051,31,09,02,040,19,11,51,059,41,1*67
$GPGSV,3,2,12,12,52,162,25,18,,,21,20,48,108,39,25,69,245,42,1*5A
$GPGSV,3,3,12,28,23,296,36,29,44,282,46,31,15,319,33,46,33,187,40,1*60
$GPGSV,2,1,06,06,20,051,33,09,02,040,24,11,51,059,35,18,,,26,8*52
$GPGSV,2,2,06,25,69,245,39,28,23,296,20,8*6E
$GLGSV,3,1,09,65,20,048,32,66,10,096,29,72,05,356,17,73,17,329,21,1*75
$GLGSV,3,2,09,79,39,186,39,80,62,280,36,81,59,034,32,82,60,268,44,1*71
$GLGSV,3,3,09,88,08,057,34,1*4C
$GAGSV,2,1,06,02,45,153,34,15,17,221,18,27,22,311,26,30,70,273,36,7*7A
$GAGSV,2,2,06,34,68,204,42,36,52,055,35,7*78
$GAGSV,2,1,07,02,45,153,29,11,05,047,23,15,17,221,30,27,22,311,31,1*7D
$GAGSV,2,2,07,30,70,273,42,34,68,204,30,36,52,055,37,1*4C
$GBGSV,3,1,11,06,11,333,25,14,09,026,28,16,16,326,27,27,66,062,35,1*71
$GBGSV,3,2,11,28,21,070,30,30,56,263,43,33,17,050,30,36,45,276,44,1*7D
$GBGSV,3,3,11,39,19,321,30,41,18,100,37,45,14,321,31,1*48
$GBGSV,2,1,08,27,66,062,28,28,21,070,31,30,56,263,45,33,17,050,36,5*7E
$GBGSV,2,2,08,36,45,276,40,39,19,321,24,41,18,100,30,45,14,321,26,5*73
$GQGSV,1,1,00,1*65
$GQGSV,1,1,00,8*6C
$GNGGA,222746.000,4911.280728,N,12307.016716,W,2,36,0.47,4.610,M,-16.830,M,,*4A
$GNRMC,222746.000,A,4911.280728,N,12307.016716,W,0.005,082.25,150325,,,D,V*28
$GNGLL,4911.280728,N,12307.016716,W,222746.000,A,D*5D
$GNVTG,082.25,T,,M,0.005,N,0.009,K,D*27
$GNGSA,A,3,05,06,11,12,20,25,28,29,31,,,,0.81,0.47,0.66,1*0D
$GNGSA,A,3,65,66,72,73,79,80,81,82,88,,,,0.81,0.47,0.66,2*0F
$GNGSA,A,3,02,15,27,30,34,36,11,,,,,,0.81,0.47,0.66,3*0B
$GNGSA,A,3,06,14,16,27,28,30,33,36,39,41,45,,0.81,0.47,0.66,4*0D
$GNGSA,A,3,,,,,,,,,,,,,0.81,0.47,0.66,5*0F
$GPGSV,3,1,12,05,29,152,31,06,20,051,32,09,02,040,18,11,51,059,41,1*65
$GPGSV,3,2,12,12,52,162,23,18,,,24,20,48,108,39,25,69,245,42,1*59
$GPGSV,3,3,12,28,23,296,35,29,44,282,45,31,15,319,32,46,33,187,40,1*61
$GPGSV,2,1,06,06,20,051,32,09,02,040,24,11,51,059,36,18,,,26,8*50
$GPGSV,2,2,06,25,69,245,39,28,23,296,20,8*6E
$GLGSV,3,1,09,65,20,048,32,66,10,096,28,72,05,356,16,73,17,329,20,1*74
$GLGSV,3,2,09,79,39,186,39,80,62,280,37,81,59,034,32,82,60,268,44,1*70
$GLGSV,3,3,09,88,08,057,34,1*4C
$GAGSV,2,1,06,02,45,153,34,15,17,221,19,27,22,311,27,30,70,273,36,7*7A
$GAGSV,2,2,06,34,68,204,42,36,52,055,36,7*7B
$GAGSV,2,1,07,02,45,153,29,11,04,047,23,15,17,221,31,27,22,311,32,1*7E
$GAGSV,2,2,07,30,70,273,42,34,68,204,29,36,52,055,37,1*44
$GBGSV,3,1,11,06,11,333,23,14,09,026,28,16,16,326,27,27,66,062,34,1*76
$GBGSV,3,2,11,28,21,070,30,30,56,263,43,33,17,050,31,36,45,276,44,1*7C
$GBGSV,3,3,11,39,19,321,29,41,18,100,36,45,14,321,31,1*41
$GBGSV,2,1,08,27,66,062,28,28,21,070,32,30,56,263,45,33,17,050,38,5*73
$GBGSV,2,2,08,36,45,276,40,39,19,321,24,41,18,100,30,45,14,321,27,5*72
$GQGSV,1,1,00,1*65
$GQGSV,1,1,00,8*6C
$GNGGA,222747.000,4911.280728,N,12307.016717,W,2,36,0.47,4.612,M,-16.830,M,,*48
$GNRMC,222747.000,A,4911.280728,N,12307.016717,W,0.001,082.25,150325,,,D,V*2C
$GNGLL,4911.280728,N,12307.016717,W,222747.000,A,D*5D
$GNVTG,082.25,T,,M,0.001,N,0.002,K,D*28
$GNGSA,A,3,05,06,11,12,20,25,28,29,31,,,,0.81,0.47,0.66,1*0D
$GNGSA,A,3,65,66,72,73,79,80,81,82,88,,,,0.81,0.47,0.66,2*0F
$GNGSA,A,3,02,15,27,30,34,36,11,,,,,,0.81,0.47,0.66,3*0B
$GNGSA,A,3,06,14,16,27,28,30,33,36,39,41,45,,0.81,0.47,0.66,4*0D
$GNGSA,A,3,,,,,,,,,,,,,0.81,0.47,0.66,5*0F
$GPGSV,3,1,12,05,29,152,29,06,20,051,32,09,02,040,19,11,51,059,41,1*6D
$GPGSV,3,2,12,12,52,162,21,18,,,21,20,48,108,39,25,69,245,42,1*5E
$GPGSV,3,3,12,28,23,296,35,29,44,282,46,31,15,319,33,46,33,187,40,1*63
$GPGSV,2,1,06,06,20,051,31,09,02,040,24,11,51,059,34,18,,,26,8*51
$GPGSV,2,2,06,25,69,245,38,28,23,296,18,8*64
$GLGSV,3,1,09,65,20,048,31,66,10,096,28,72,05,356,16,73,17,329,21,1*76
$GLGSV,3,2,09,79,39,186,39,80,62,280,37,81,59,034,32,82,60,268,44,1*70
$GLGSV,3,3,09,88,08,057,34,1*4C
$GAGSV,2,1,06,02,45,153,34,15,17,221,20,27,22,311,28,30,70,273,36,7*7F
$GAGSV,2,2,06,34,68,204,42,36,52,055,34,7*79
$GAGSV,2,1,07,02,45,153,29,11,04,047,21,15,17,221,30,27,22,311,31,1*7E
$GAGSV,2,2,07,30,70,273,42,34,68,204,28,36,52,055,36,1*44
$GBGSV,3,1,11,06,11,333,23,14,09,026,27,16,16,326,26,27,66,062,34,1*78
$GBGSV,3,2,11,28,21,070,31,30,56,263,43,33,17,050,29,36,45,276,44,1*74
$GBGSV,3,3,11,39,19,321,29,41,18,100,37,45,14,321,30,1*41
$GBGSV,2,1,08,27,66,062,27,28,21,070,30,30,56,263,44,33,17,050,35,5*72
$GBGSV,2,2,08,36,45,276,39,39,19,321,23,41,18,100,29,45,14,321,25,5*71
$GQGSV,1,1,00,1*65
$GQGSV,1,1,00,8*6C
$GNGGA,222748.000,4911.280728,N,12307.016719,W,2,36,0.47,4.614,M,-16.830,M,,*4F
$GNRMC,222748.000,A,4911.280728,N,12307.016719,W,0.005,082.25,150325,,,D,V*29
$GNGLL,4911.280728,N,12307.016719,W,222748.000,A,D*5C
$GNVTG,082.25,T,,M,0.005,N,0.009,K,D*27
$GNGSA,A,3,05,06,11,12,20,25,28,29,31,,,,0.81,0.47,0.66,1*0D
$GNGSA,A,3,65,66,72,73,79,80,81,82,88,,,,0.81,0.47,0.66,2*0F
$GNGSA,A,3,02,15,27,30,34,36,11,,,,,,0.81,0.47,0.66,3*0B
$GNGSA,A,3,06,14,16,27,28,30,33,36,39,41,45,,0.81,0.47,0.66,4*0D
$GNGSA,A,3,,,,,,,,,,,,,0.81,0.47,0.66,5*0F
$GPGSV,3,1,12,05,29,152,30,06,20,051,32,09,02,040,19,11,51,059,41,1*65
$GPGSV,3,2,12,12,52,162,20,18,,,20,20,48,108,39,25,69,245,42,1*5E
$GPGSV,3,3,12,28,23,296,36,29,44,282,46,31,15,319,33,46,33,187,40,1*60
$GPGSV,2,1,06,06,20,051,31,09,02,040,25,11,51,059,36,18,,,28,8*5C
$GPGSV,2,2,06,25,69,245,40,28,23,296,20,8*60
$GLGSV,3,1,09,65,20,048,32,66,10,096,29,72,05,356,17,73,17,329,20,1*74
$GLGSV,3,2,09,79,39,186,38,80,62,280,36,81,59,034,33,82,60,268,44,1*71
$GLGSV,3,3,09,88,08,057,34,1*4C
$GAGSV,2,1,06,02,45,153,34,15,17,221,19,27,22,311,27,30,70,273,37,7*7B
$GAGSV,2,2,06,34,68,204,41,36,52,055,35,7*7B
$GAGSV,2,1,07,02,45,153,30,11,04,047,23,15,17,221,30,27,22,311,32,1*77
$GAGSV,2,2,07,30,70,273,43,34,68,204,29,36,52,055,37,1*45
$GBGSV,3,1,11,06,11,333,22,14,09,026,29,16,16,326,26,27,66,062,34,1*77
$GBGSV,3,2,11,28,21,070,31,30,56,263,43,33,17,050,30,36,45,276,44,1*7C
$GBGSV,3,3,11,39,19,321,30,41,18,100,37,45,14,321,32,1*4B
$GBGSV,2,1,08,27,66,062,29,28,21,070,30,30,56,263,45,33,17,050,37,5*7F
$GBGSV,2,2,08,36,45,276,41,39,19,321,25,41,18,100,29,45,14,321,27,5*7A
$GQGSV,1,1,00,1*65
$GQGSV,1,1,00,8*6C
$GNGGA,222749.000,4911.280728,N,12307.016720,W,2,36,0.47,4.614,M,-16.829,M,,*4C
$GNRMC,222749.000,A,4911.280728,N,12307.016720,W,0.003,082.25,150325,,,D,V*24
$GNGLL,4911.280728,N,12307.016720,W,222749.000,A,D*57
$GNVTG,082.25,T,,M,0.003,N,0.006,K,D*2E
$GNGSA,A,3,05,06,11,12,20,25,28,29,31,,,,0.81,0.47,0.66,1*0D
$GNGSA,A,3,65,66,72,73,79,80,81,82,88,,,,0.81,0.47,0.66,2*0F
$GNGSA,A,3,02,15,27,30,34,36,11,,,,,,0.81,0.47,0.66,3*0B
$GNGSA,A,3,06,14,16,27,28,30,33,36,39,41,45,,0.81,0.47,0.66,4*0D
$GNGSA,A,3,,,,,,,,,,,,,0.81,0.47,0.66,5*0F
$GPGSV,3,1,12,05,29,152,29,06,20,051,31,09,02,040,18,11,51,059,41,1*6F
$GPGSV,3,2,12,12,52,162,22,18,,,20,20,48,108,39,25,69,245,42,1*5C
$GPGSV,3,3,12,28,23,296,35,29,44,282,45,31,15,319,32,46,33,187,40,1*61
$GPGSV,2,1,06,06,20,051,32,09,02,040,24,11,51,059,34,18,,,26,8*52
$GPGSV,2,2,06,25,69,245,39,28,23,296,20,8*6E
$GLGSV,3,1,09,65,20,048,32,66,10,096,28,72,05,356,17,73,17,329,20,1*75
$GLGSV,3,2,09,79,39,186,39,80,62,280,36,81,59,034,32,82,60,268,44,1*71
$GLGSV,3,3,09,88,08,057,35,1*4D
$GAGSV,2,1,06,02,45,153,34,15,17,221,18,27,22,311,27,30,70,273,35,7*78
$GAGSV,2,2,06,34,68,204,42,36,52,055,35,7*78
$GAGSV,2,1,07,02,45,153,29,11,04,047,22,15,17,221,30,27,22,311,31,1*7D
$GAGSV,2,2,07,30,70,273,42,34,68,204,28,36,52,055,37,1*45
$GBGSV,3,1,11,06,11,333,24,14,09,026,28,16,16,326,25,27,66,062,35,1*72
$GBGSV,3,2,11,28,21,070,30,30,56,263,43,33,17,050,29,36,45,276,44,1*75
$GBGSV,3,3,11,39,19,321,30,41,18,100,37,45,14,321,32,1*4B
$GBGSV,2,1,08,27,66,062,27,28,21,070,30,30,56,263,45,33,17,050,36,5*70
$GBGSV,2,2,08,36,45,276,39,39,19,321,23,41,18,100,29,45,14,321,25,5*71
$GQGSV,1,1,00,1*65
$GQGSV,1,1,00,8*6C
$GNGGA,222750.000,4911.280729,N,12307.016723,W,2,36,0.47,4.616,M,-16.830,M,,*4C
$GNRMC,222750.000,A,4911.280729,N,12307.016723,W,0.007,082.25,150325,,,D,V*2A
$GNGLL,4911.280729,N,12307.016723,W,222750.000,A,D*5D
$GNVTG,082.25,T,,M,0.007,N,0.013,K,D*2E
$GNGSA,A,3,05,06,11,12,20,25,28,29,31,,,,0.81,0.47,0.66,1*0D
$GNGSA,A,3,65,66,72,73,79,80,81,82,88,,,,0.81,0.47,0.66,2*0F
$GNGSA,A,3,02,15,27,30,34,36,11,,,,,,0.81,0.47,0.66,3*0B
$GNGSA,A,3,06,14,16,27,28,30,33,36,39,41,45,,0.81,0.47,0.66,4*0D
$GNGSA,A,3,,,,,,,,,,,,,0.81,0.47,0.66,5*0F
$GPGSV,3,1,12,05,29,152,30,06,20,051,30,09,02,039,18,11,51,059,41,1*68
$GPGSV,3,2,12,12,52,162,21,18,,,20,20,48,108,39,25,69,245,42,1*5F
$GPGSV,3,3,12,28,23,296,35,29,44,282,46,31,15,319,32,46,33,187,40,1*62
$GPGSV,2,1,06,06,20,051,32,09,02,039,24,11,51,059,36,18,,,26,8*5E
$GPGSV,2,2,06,25,69,245,39,28,23,296,22,8*6C
$GLGSV,3,1,09,65,20,048,31,66,10,096,28,72,05,356,16,73,17,329,21,1*76
$GLGSV,3,2,09,79,39,186,39,80,62,280,36,81,59,034,32,82,60,268,44,1*71
$GLGSV,3,3,09,88,08,057,35,1*4D
$GAGSV,2,1,06,02,45,153,34,15,17,221,19,27,22,311,28,30,70,273,36,7*75
$GAGSV,2,2,06,34,68,204,41,36,52,055,34,7*7A
$GAGSV,2,1,07,02,45,153,30,11,04,047,22,15,17,221,30,27,22,311,31,1*75
$GAGSV,2,2,07,30,70,273,43,34,68,204,29,36,52,055,37,1*45
$GBGSV,3,1,11,06,11,333,24,14,09,026,28,16,16,326,25,27,66,062,34,1*73
$GBGSV,3,2,11,28,21,070,30,30,56,263,43,33,17,050,30,36,45,276,45,1*7C
$GBGSV,3,3,11,39,19,321,30,41,18,100,37,45,14,321,31,1*48
$GBGSV,2,1,08,27,66,062,28,28,21,070,31,30,56,263,46,33,17,050,37,5*7C
$GBGSV,2,2,08,36,45,276,41,39,19,321,25,41,18,100,30,45,14,321,27,5*72
$GQGSV,1,1,00,1*65
$GQGSV,1,1,00,8*6C
