4,23,09,093,31,27,08,208,15,28,23,153,25,1*65
$GPGSV,3,3,11,31,,,17,32,80,104,32,46,33,187,35,1*67
$GPGSV,3,1,09,01,32,306,31,03,06,277,27,08,22,240,26,10,51,082,36,8*63
$GPGSV,3,2,09,23,09,093,33,24,08,033,30,27,08,208,30,28,23,153,23,8*63
$GPGSV,3,3,09,32,80,104,32,8*59
$GLGSV,2,1,07,66,14,053,39,67,65,027,33,68,53,257,39,75,04,354,22,1*74
$GLGSV,2,2,07,76,17,048,27,82,46,184,35,83,70,271,26,1*4E
$GAGSV,2,1,07,03,52,060,33,05,03,047,21,07,17,219,19,08,67,195,36,7*71
$GAGSV,2,2,07,13,72,283,39,15,4$GNGGA,062848.000,4911.283286,N,12307.018309,W,1,32,0.52,-0.470,M,-16.830,M,,*65
$GNRMC,062848.000,A,4911.283286,N,12307.018309,W,0.016,354.45,130325,,,A,V*26
$GNGLL,4911.283286,N,12307.018309,W,062848.000,A,A*59
$GNVTG,354.45,T,,M,0.016,N,0.030,K,A*24
$GNGSA,A,3,01,02,03,08,10,23,24,27,28,32,,,0.87,0.52,0.69,1*06
$GNGSA,A,3,66,67,68,76,82,83,,,,,,,0.87,0.52,0.69,2*0A
$GNGSA,A,3,03,07,08,13,15,26,,,,,,,0.87,0.52,0.69,3*0A
$GNGSA,A,3,14,24,26,27,28,33,40,41,42,43,,,0.87,0.52,0.69,4*0B
$GNGSA,A,3,,,,,,,,,,,,,0.87,0.52,0.69,5*02
$GPGSV,3,1,12,01,33,306,34,02,52,295,35,03,06,278,18,08,22,240,26,1*60
$GPGSV,3,2,12,10,50,083,34,23,08,094,27,24,08,033,20,27,08,208,30,1*67
$GPGSV,3,3,12,28,24,153,26,31,,,17,32,79,100,17,46,33,187,36,1*5D
$GPGSV,2,1,08,01,33,306,27,03,06,278,18,08,22,240,30,10,50,083,42,8*62
$GPGSV,2,2,08,23,08,094,27,24,08,033,27,28,24,153,26,32,79,100,30,8*6D
$GLGSV,2,1,07,66,13,053,38,67,65,028,25,68,53,259,37,75,03,353,19,1*72
$GLGSV,2,2,07,76,17,047,32,82,45,184,38,83,70,268,26,1*43
$GAGSV,2,1,06,03,51,059,33,07,17,219,20,08,68,195,35,13,72,281,41,7*70
$GAGSV,2,2,06,15,45,149,24,26,21,312,25,7*7A
$GAGSV,2,1,07,03,51,059,26,05,03,047,16,07,17,219,22,08,68,195,27,1*79
$GAGSV,2,2,07,13,72,281,35,15,45,149,22,26,21,312,35,1*40
$GBGSV,3,1,11,07,,,17,14,59,060,25,24,11,115,25,26,17,066,36,1*4E
$GBGSV,3,2,11,27,37,300,39,28,50,236,30,33,83,344,31,40,21,319,25,1*75
$GBGSV,3,3,11,41,36,256,34,42,31,066,35,43,12,177,20,1*45
$GBGSV,2,1,08,24,11,115,39,26,17,066,37,27,37,300,41,28,50,236,31,5*7B
$GBGSV,2,2,08,33,83,344,24,40,21,319,36,41,36,256,31,43,12,177,19,5*73
$GQGSV,1,1,00,1*65
$GQGSV,1,1,00,8*6C
$GNGGA,062849.000,4911.283293,N,12307.018312,W,1,32,0.54,-0.476,M,-16.829,M,,*62
$GNRMC,062849.000,A,4911.283293,N,12307.018312,W,0.004,354.45,130325,,,A,V*2A
$GNGLL,4911.283293,N,12307.018312,W,062849.000,A,A*56
$GNVTG,354.45,T,,M,0.004,N,0.008,K,A*2C
$GNGSA,A,3,01,02,03,08,10,23,24,27,28,32,,,0.90,0.54,0.72,1*0C
$GNGSA,A,3,66,67,68,76,82,83,,,,,,,0.90,0.54,0.72,2*00
$GNGSA,A,3,03,07,08,13,15,26,,,,,,,0.90,0.54,0.72,3*00
$GNGSA,A,3,14,24,26,27,28,33,40,41,42,43,,,0.90,0.54,0.72,4*01
$GNGSA,A,3,,,,,,,,,,,,,0.90,0.54,0.72,5*08
$GPGSV,3,1,12,01,33,306,35,02,52,295,35,03,06,278,19,08,22,240,26,1*60
$GPGSV,3,2,12,10,50,083,32,23,08,094,26,24,08,033,20,27,08,208,29,1*68
$GPGSV,3,3,12,28,24,153,25,31,,,16,32,79,100,16,46,33,187,36,1*5E
$GPGSV,2,1,08,01,33,306,27,03,06,278,18,08,22,240,30,10,50,083,42,8*62
$GPGSV,2,2,08,23,08,094,27,24,08,033,27,28,24,153,25,32,79,100,31,8*6F
$GLGSV,2,1,07,66,13,053,37,67,65,028,26,68,53,259,34,75,03,353,19,1*7D
$GLGSV,2,2,07,76,17,047,32,82,45,184,39,83,70,268,24,1*40
$GAGSV,2,1,06,03,51,059,34,07,17,219,19,08,68,195,35,13,72,281,42,7*7E
$GAGSV,2,2,06,15,45,149,25,26,21,312,23,7*7D
$GAGSV,2,1,07,03,51,059,29,05,03,047,17,07,17,219,22,08,68,195,25,1*75
$GAGSV,2,2,07,13,72,281,36,15,45,149,20,26,21,312,34,1*40
$GBGSV,3,1,11,07,,,17,14,59,060,24,24,11,115,23,26,17,066,36,1*49
$GBGSV,3,2,11,27,37,300,38,28,50,236,30,33,83,344,32,40,21,319,23,1*71
$GBGSV,3,3,11,41,36,256,33,42,31,066,33,43,12,177,20,1*44
$GBGSV,2,1,08,24,11,115,38,26,17,066,37,27,37,300,41,28,50,236,33,5*78
$GBGSV,2,2,08,33,83,344,18,40,21,319,37,41,36,256,29,43,12,177,19,5*74
$GQGSV,1,1,00,1*65
$GQGSV,1,1,00,8*6C
$GNGGA,062850.000,4911.283301,N,12307.018321,W,1,32,0.47,-0.481,M,-16.829,M,,*6A
$GNRMC,062850.000,A,4911.283301,N,12307.018321,W,0.017,354.45,130325,,,A,V*2A
$GNGLL,4911.283301,N,12307.018321,W,062850.000,A,A*54
$GNVTG,354.45,T,,M,0.017,N,0.032,K,A*27
$GNGSA,A,3,01,02,03,08,10,23,24,27,28,32,,,0.80,0.47,0.64,1*08
$GNGSA,A,3,66,67,68,76,82,83,,,,,,,0.80,0.47,0.64,2*04
$GNGSA,A,3,03,07,08,13,15,26,,,,,,,0.80,0.47,0.64,3*04
$GNGSA,A,3,14,24,26,27,28,33,40,41,42,43,,,0.80,0.47,0.64,4*05
$GNGSA,A,3,,,,,,,,,,,,,0.80,0.47,0.64,5*0C
$GPGSV,3,1,12,01,33,306,35,02,52,295,35,03,06,278,19,08,22,240,26,1*60
$GPGSV,3,2,12,10,50,083,31,23,08,094,27,24,08,033,20,27,08,208,29,1*6A
$GPGSV,3,3,12,28,24,153,25,31,,,17,32,79,099,15,46,33,187,36,1*5D
$GPGSV,2,1,08,01,33,306,27,03,06,278,18,08,22,240,31,10,50,083,42,8*63
$GPGSV,2,2,08,23,08,094,28,24,08,033,27,28,24,153,26,32,79,099,31,8*62
$GLGSV,2,1,07,66,13,053,37,67,64,028,25,68,53,259,36,75,03,353,18,1*7C
$GLGSV,2,2,07,76,17,047,33,82,45,184,39,83,70,268,23,1*46
$GAGSV,2,1,06,03,51,059,34,07,17,219,21,08,68,195,34,13,72,281,41,7*77
$GAGSV,2,2,06,15,45,149,23,26,21,312,23,7*7B
$GAGSV,2,1,07,03,51,059,30,05,03,047,17,07,17,219,23,08,68,195,28,1*71
$GAGSV,2,2,07,13,72,281,37,15,45,149,21,26,21,312,35,1*41
$GBGSV,3,1,11,07,,,15,14,59,060,24,24,11,115,23,26,17,066,36,1*4B
$GBGSV,3,2,11,27,37,300,38,28,50,236,32,33,83,344,33,40,21,319,23,1*72
$GBGSV,3,3,11,41,36,256,33,42,31,066,32,43,12,177,20,1*45
$GBGSV,2,1,08,24,11,115,38,26,17,066,38,27,37,300,41,28,50,236,34,5*70
$GBGSV,2,2,08,33,83,344,17,40,21,319,37,41,36,256,30,43,12,177,20,5*79
$GQGSV,1,1,00,1*65
$GQGSV,1,1,00,8*6C
$GNGGA,062851.000,4911.283308,N,12307.018332,W,1,32,0.51,-0.485,M,-16.829,M,,*63
$GNRMC,062851.000,A,4911.283308,N,12307.018332,W,0.010,354.45,130325,,,A,V*27
$GNGLL,4911.283308,N,12307.018332,W,062851.000,A,A*5E
$GNVTG,354.45,T,,M,0.010,N,0.018,K,A*28
$GNGSA,A,3,01,02,03,08,10,23,24,27,28,32,,,0.87,0.51,0.70,1*0D
$GNGSA,A,3,66,67,68,76,82,83,,,,,,,0.87,0.51,0.70,2*01
$GNGSA,A,3,03,07,08,13,15,26,,,,,,,0.87,0.51,0.70,3*01
$GNGSA,A,3,14,24,26,27,28,33,40,41,42,43,,,0.87,0.51,0.70,4*00
$GNGSA,A,3,,,,,,,,,,,,,0.87,0.51,0.70,5*09
$GPGSV,3,1,12,01,33,306,35,02,52,295,35,03,06,278,19,08,22,240,25,1*63
$GPGSV,3,2,12,10,50,083,34,23,08,094,25,24,08,033,19,27,08,208,28,1*66
$GPGSV,3,3,12,28,24,153,25,31,,,17,32,79,099,17,46,33,187,36,1*5F
$GPGSV,2,1,08,01,33,306,29,03,06,278,18,08,22,240,31,10,50,083,42,8*6D
$GPGSV,2,2,08,23,08,094,27,24,08,033,27,28,24,153,26,32,79,099,30,8*6C
$GLGSV,2,1,07,66,13,053,37,67,64,028,25,68,53,259,36,75,03,353,19,1*7D
$GLGSV,2,2,07,76,17,047,33,82,45,184,39,83,70,268,25,1*40
$GAGSV,2,1,06,03,51,059,33,07,17,219,20,08,68,195,35,13,72,281,41,7*70
$GAGSV,2,2,06,15,45,149,22,26,21,312,26,7*7F
$GAGSV,2,1,07,03,51,059,28,05,03,047,16,07,17,219,22,08,68,195,27,1*77
$GAGSV,2,2,07,13,72,281,37,15,45,149,21,26,21,312,36,1*42
$GBGSV,3,1,11,07,,,17,14,59,060,23,24,11,115,24,26,17,066,37,1*48
$GBGSV,3,2,11,27,37,300,39,28,50,236,33,33,83,344,33,40,21,319,24,1*75
$GBGSV,3,3,11,41,36,256,34,42,31,066,34,43,12,177,19,1*4E
$GBGSV,2,1,08,24,11,115,38,26,17,066,38,27,37,300,41,28,50,236,32,5*76
$GBGSV,2,2,08,33,83,344,20,40,21,319,37,41,36,256,32,43,12,177,20,5*7F
$GQGSV,1,1,00,1*65
$GQGSV,1,1,00,8*6C
$GNGGA,062852.000,4911.283314,N,12307.018340,W,1,32,0.49,-0.489,M,-16.829,M,,*6D
$GNRMC,062852.000,A,4911.283314,N,12307.018340,W,0.010,354.45,130325,,,A,V*2C
$GNGLL,4911.283314,N,12307.018340,W,062852.000,A,A*55
$GNVTG,354.45,T,,M,0.010,N,0.018,K,A*28
$GNGSA,A,3,01,02,03,08,10,23,24,27,28,32,,,0.86,0.49,0.71,1*04
$GNGSA,A,3,66,67,68,76,82,83,,,,,,,0.86,0.49,0.71,2*08
$GNGSA,A,3,03,07,08,13,15,26,,,,,,,0.86,0.49,0.71,3*08
$GNGSA,A,3,14,24,26,27,28,33,40,41,42,43,,,0.86,0.49,0.71,4*09
$GNGSA,A,3,,,,,,,,,,,,,0.86,0.49,0.71,5*00
$GPGSV,3,1,12,01,33,306,35,02,52,295,35,03,06,278,20,08,22,240,24,1*68
$GPGSV,3,2,12,10,50,083,33,23,08,094,27,24,08,033,20,27,08,208,29,1*68
$GPGSV,3,3,12,28,24,153,25,31,,,17,32,79,099,14,46,33,187,36,1*5C
$GPGSV,2,1,08,01,33,306,27,03,06,278,18,08,22,240,32,10,50,083,42,8*60
$GPGSV,2,2,08,23,08,094,25,24,08,033,27,28,24,153,27,32,79,099,31,8*6E
$GLGSV,2,1,07,66,13,053,37,67,64,028,25,68,53,259,36,75,03,353,19,1*7D
$GLGSV,2,2,07,76,17,047,33,82,45,184,38,83,70,268,25,1*41
$GAGSV,2,1,06,03,51,059,33,07,17,219,20,08,68,195,36,13,72,281,41,7*73
$GAGSV,2,2,06,15,45,149,24,26,21,312,25,7*7A
$GAGSV,2,1,07,03,51,059,29,05,03,047,16,07,17,219,22,08,68,195,28,1*79
$GAGSV,2,2,07,13,72,281,37,15,45,149,17,26,21,312,35,1*44
$GBGSV,3,1,11,07,,,16,14,59,060,22,24,11,115,25,26,17,066,37,1*49
$GBGSV,3,2,11,27,37,300,39,28,50,236,30,33,83,344,32,40,21,319,22,1*71
$GBGSV,3,3,11,41,36,256,35,42,31,066,32,43,12,177,20,1*43
$GBGSV,2,1,08,24,11,115,38,26,17,066,37,27,37,300,41,28,50,236,32,5*79
$GBGSV,2,2,08,33,83,344,17,40,21,319,36,41,36,256,30,43,12,177,20,5*78
$GQGSV,1,1,00,1*65
$GQGSV,1,1,00,8*6C
$GNGGA,062853.000,4911.283317,N,12307.018351,W,1,32,0.50,-0.490,M,-16.830,M,,*67
$GNRMC,062853.000,A,4911.283317,N,12307.018351,W,0.014,354.45,130325,,,A,V*2A
$GNGLL,4911.283317,N,12307.018351,W,062853.000,A,A*57
$GNVTG,354.45,T,,M,0.014,N,0.026,K,A*21
$GNGSA,A,3,01,02,03,08,10,23,24,27,28,32,,,0.83,0.50,0.67,1*0E
$GNGSA,A,3,66,67,68,76,82,83,,,,,,,0.83,0.50,0.67,2*02
$GNGSA,A,3,03,07,08,13,15,26,,,,,,,0.83,0.50,0.67,3*02
$GNGSA,A,3,14,24,26,27,28,33,40,41,42,43,,,0.83,0.50,0.67,4*03
$GNGSA,A,3,,,,,,,,,,,,,0.83,0.50,0.67,5*0A
$GPGSV,3,1,12,01,33,306,35,02,52,295,36,03,06,278,19,08,22,240,25,1*60
$GPGSV,3,2,12,10,50,083,33,23,08,094,26,24,08,033,18,27,08,208,29,1*62
$GPGSV,3,3,12,28,24,153,23,31,,,17,32,79,099,14,46,33,187,36,1*5A
$GPGSV,2,1,08,01,33,306,28,03,06,278,18,08,22,240,31,10,50,083,42,8*6C
$GPGSV,2,2,08,23,08,094,26,24,08,033,27,28,24,153,26,32,79,099,30,8*6D
$GLGSV,2,1,07,66,13,053,37,67,64,028,24,68,53,259,36,75,03,353,20,1*76
$GLGSV,2,2,07,76,17,047,31,82,45,184,38,83,70,268,25,1*43
$GAGSV,2,1,06,03,51,059,34,07,17,219,20,08,68,195,35,13,72,281,41,7*77
$GAGSV,2,2,06,15,45,149,22,26,21,312,26,7*7F
$GAGSV,2,1,07,03,51,059,24,05,03,047,16,07,17,219,22,08,68,195,27,1*7B
$GAGSV,2,2,07,13,72,281,36,15,45,149,17,26,21,312,35,1*45
$GBGSV,3,1,11,07,,,17,14,59,060,24,24,11,115,25,26,17,066,36,1*4F
$GBGSV,3,2,11,27,37,300,39,28,50,236,33,33,83,344,30,40,21,319,23,1*71
$GBGSV,3,3,11,41,36,256,35,42,31,066,34,43,12,177,19,1*4F
$GBGSV,2,1,07,24,11,115,38,26,17,066,37,27,37,300,40,28,50,236,30,5*75
$GBGSV,2,2,07,40,21,319,36,41,36,256,31,43,12,177,19,5*42
$GQGSV,1,1,00,1*65
$GQGSV,1,1,00,8*6C
$GNGGA,062854.000,4911.283319,N,12307.018363,W,1,32,0.50,-0.491,M,-16.830,M,,*6E
$GNRMC,062854.000,A,4911.283319,N,12307.018363,W,0.004,354.45,130325,,,A,V*23
$GNGLL,4911.283319,N,12307.018363,W,062854.000,A,A*5F
$GNVTG,354.45,T,,M,0.004,N,0.008,K,A*2C
$GNGSA,A,3,01,02,03,08,10,23,24,27,28,32,,,0.83,0.50,0.67,1*0E
$GNGSA,A,3,66,67,68,76,82,83,,,,,,,0.83,0.50,0.67,2*02
$GNGSA,A,3,03,07,08,13,15,26,,,,,,,0.83,0.50,0.67,3*02
$GNGSA,A,3,14,24,26,27,28,33,40,41,42,43,,,0.83,0.50,0.67,4*03
$GNGSA,A,3,,,,,,,,,,,,,0.83,0.50,0.67,5*0A
$GPGSV,3,1,12,01,33,306,35,02,52,295,36,03,06,278,21,08,22,240,24,1*6A
$GPGSV,3,2,12,10,50,083,32,23,08,094,26,24,08,033,18,27,08,208,29,1*63
$GPGSV,3,3,12,28,24,153,23,31,,,17,32,79,099,14,46,33,187,36,1*5A
$GPGSV,2,1,08,01,33,306,30,03,06,278,17,08,22,240,31,10,50,083,41,8*69
$GPGSV,2,2,08,23,08,094,26,24,08,033,26,28,24,153,26,32,79,099,30,8*6C
$GLGSV,2,1,07,66,13,053,37,67,64,028,25,68,53,259,37,75,03,353,20,1*76
$GLGSV,2,2,07,76,17,047,31,82,45,184,38,83,70,268,25,1*43
$GAGSV,2,1,06,03,51,059,34,07,17,219,20,08,68,195,35,13,72,281,41,7*77
$GAGSV,2,2,06,15,45,149,23,26,21,312,28,7*70
$GAGSV,2,1,07,03,51,059,25,05,03,047,17,07,17,219,23,08,68,195,26,1*7B
$GAGSV,2,2,07,13,72,281,36,15,45,149,19,26,21,312,35,1*4B
$GBGSV,3,1,11,07,,,17,14,59,060,25,24,11,115,25,26,17,066,36,1*4E
$GBGSV,3,2,11,27,37,300,40,28,50,236,33,33,83,344,30,40,21,319,22,1*7E
$GBGSV,3,3,11,41,36,256,34,42,31,066,35,43,12,177,19,1*4F
$GBGSV,2,1,07,24,11,115,38,26,17,066,38,27,37,300,41,28,50,236,31,5*7A
$GBGSV,2,2,07,40,21,319,37,41,36,256,30,43,12,177,19,5*42
$GQGSV,1,1,00,1*65
$GQGSV,1,1,00,8*6C
$GNGGA,062855.000,4911.283324,N,12307.018375,W,1,32,0.49,-0.496,M,-16.829,M,,*61
$GNRMC,062855.000,A,4911.283324,N,12307.018375,W,0.027,354.45,130325,,,A,V*2A
$GNGLL,4911.283324,N,12307.018375,W,062855.000,A,A*57
$GNVTG,354.45,T,,M,0.027,N,0.049,K,A*28
$GNGSA,A,3,01,02,03,08,10,23,24,27,28,32,,,0.81,0.49,0.64,1*07
$GNGSA,A,3,66,67,68,76,82,83,,,,,,,0.81,0.49,0.64,2*0B
$GNGSA,A,3,03,07,08,13,15,26,,,,,,,0.81,0.49,0.64,3*0B
$GNGSA,A,3,14,24,26,27,28,33,40,41,42,43,,,0.81,0.49,0.64,4*0A
$GNGSA,A,3,,,,,,,,,,,,,0.81,0.49,0.64,5*03
$GPGSV,3,1,12,01,33,306,36,02,52,295,36,03,06,278,20,08,22,240,24,1*68
$GPGSV,3,2,12,10,50,083,32,23,08,094,26,24,08,033,18,27,08,208,29,1*63
$GPGSV,3,3,12,28,24,153,24,31,,,17,32,79,099,13,46,33,187,36,1*5A
$GPGSV,2,1,08,01,33,306,29,03,06,278,17,08,22,240,30,10,50,083,41,8*60
$GPGSV,2,2,08,23,08,094,26,24,08,033,25,28,24,153,27,32,79,099,30,8*6E
$GLGSV,2,1,07,66,13,053,37,67,64,028,27,68,53,259,36,75,03,353,21,1*74
$GLGSV,2,2,07,76,17,047,31,82,45,184,38,83,70,268,25,1*43
$GAGSV,2,1,06,03,51,059,33,07,17,219,22,08,68,195,34,13,72,281,41,7*73
$GAGSV,2,2,06,15,45,149,24,26,21,312,25,7*7A
$GAGSV,2,1,07,03,51,059,24,05,03,047,16,07,17,219,21,08,68,195,26,1*79
$GAGSV,2,2,07,13,72,281,35,15,45,149,17,26,21,312,34,1*47
$GBGSV,3,1,11,07,,,16,14,59,060,23,24,11,115,25,26,17,066,36,1*49
$GBGSV,3,2,11,27,37,300,39,28,50,236,34,33,83,344,31,40,21,319,21,1*75
$GBGSV,3,3,11,41,36,256,34,42,31,066,34,43,12,177,20,1*44
$GBGSV,2,1,07,24,11,115,38,26,17,066,37,27,37,300,40,28,50,236,31,5*74
$GBGSV,2,2,07,40,21,319,36,41,36,256,29,43,12,177,19,5*4B
$GQGSV,1,1,00,1*65
$GQGSV,1,1,00,8*6C
$GNGGA,062856.000,4911.283329,N,12307.018389,W,1,32,0.48,-0.497,M,-16.830,M,,*64
$GNRMC,062856.000,A,4911.283329,N,12307.018389,W,0.003,354.45,130325,,,A,V*21
$GNGLL,4911.283329,N,12307.018389,W,062856.000,A,A*5A
$GNVTG,354.45,T,,M,0.003,N,0.005,K,A*26
$GNGSA,A,3,01,02,03,08,10,23,24,27,28,32,,,0.80,0.48,0.63,1*00
$GNGSA,A,3,66,67,68,76,82,83,,,,,,,0.80,0.48,0.63,2*0C
$GNGSA,A,3,03,07,08,13,15,26,,,,,,,0.80,0.48,0.63,3*0C
$GNGSA,A,3,14,24,26,27,28,33,40,41,42,43,,,0.80,0.48,0.63,4*0D
$GNGSA,A,3,,,,,,,,,,,,,0.80,0.48,0.63,5*04
$GPGSV,3,1,12,01,33,306,36,02,52,294,36,03,06,278,22,08,22,240,23,1*6C
$GPGSV,3,2,12,10,50,083,32,23,08,094,26,24,08,033,17,27,08,208,28,1*6D
$GPGSV,3,3,12,28,24,153,23,31,,,17,32,79,099,13,46,33,187,36,1*5D
$GPGSV,2,1,08,01,33,306,30,03,06,278,20,08,22,240,31,10,50,083,42,8*6E
$GPGSV,2,2,08,23,08,094,27,24,08,033,26,28,24,153,26,32,79,099,30,8*6D
$GLGSV,2,1,07,66,13,053,37,67,64,028,27,68,53,259,37,75,03,353,20,1*74
$GLGSV,2,2,07,76,17,047,32,82,45,184,38,83,70,268,24,1*41
$GAGSV,2,1,06,03,51,059,34,07,17,219,19,08,68,195,35,13,72,281,41,7*7D
$GAGSV,2,2,06,15,45,149,24,26,21,312,26,7*79
$GAGSV,2,1,07,03,51,059,25,05,03,047,17,07,17,219,23,08,68,195,27,1*7A
$GAGSV,2,2,07,13,72,281,37,15,45,149,20,26,21,312,35,1*40
$GBGSV,3,1,11,07,,,17,14,59,060,24,24,11,115,26,26,17,066,36,1*4C
$GBGSV,3,2,11,27,37,300,40,28,50,236,34,33,83,344,31,40,21,319,23,1*79
$GBGSV,3,3,11,41,36,256,34,42,31,066,34,43,12,177,19,1*4E
$GBGSV,2,1,08,24,11,115,39,26,17,066,38,27,37,300,41,28,50,236,31,5*74
$GBGSV,2,2,08,33,83,344,19,40,21,319,37,41,36,256,30,43,12,177,20,5*77
$GQGSV,1,1,00,1*65
$GQGSV,1,1,00,8*6C
