16,27,28,30,33,36,39,41,45,,0.82,0.49,0.65,4*03
$GNGSA,A,3,,,,,,,,,,,,,0.82,0.49,0.65,5*01
$GPGSV,3,1,10,05,27,153,23,06,21,051,32,11,53,060,38,12,54,162,37,1*69
$GPGSV,3,2,10,20,48,111,43,25,69,251,43,28,23,297,39,29,42,281,43,1*69
$GPGSV,3,3,10,31,14,321,35,46,33,187,40,1*6C
$GPGSV,1,1,04,06,21,051,40,11,53,060,34,25,69,251,44,28,23,297,29,8*69
$GLGSV,3,1,09,65,19,050,25,66,09,098,32,72,06,358,19,73,15,330,16,1*71
$GLGSV,3,2,09,79,41,186,34,80,61,285,42,81,61,032,30,82,58,265,45,1*7E
$GLGSV,3,3,09,88,10,056,29,1*48
$GAGSV,2,1,05,02,46,153,26,27,20,311,30,30,69,277,41,34,67,204,43,7*7D
$GAGSV,2,2,05,36,54,056,34,7*46
$GAGSV,2,1,07,02,46,153,27,11,06,046,19,15,16,220,26,27,20,311,29,1*77
$GAGSV,2,2,07,30,69,277,38,34,67,204,38,36,54,056,28,1*41
$GBGSV,3,1,11,06,11,333,25,14,09,027,23,16,16,327,24,27,68,061,36,1*77
$GBGSV,3,2,11,28,22,070,32,30,55,261,46,33,17,051,33,36,45,278,41,1*71
$GBGSV,3,3,11,39,19,321,31,41,17,101,35,45,13,322,28,1*49
$GBGSV,2,1,08,27,68,061,37,28,22,070,35,30,55,261,45,33,17,051,35,5*79
$GBGSV,2,2,08,36,45,278,41,39,19,321,25,41,17,101,32,45,13,322,30,5*72
$GQGSV,1,1,00,1*65
$GQGSV,1,1,00,8*6C
$GNGGA,222345.000,4911.280912,N,12307.016523,W,2,36,0.51,4.408,M,-16.829,M,,*4A
$GNRMC,222345.000,A,4911.280912,N,12307.016523,W,0.008,082.25,150325,,,D,V*21
$GNGLL,4911.280912,N,12307.016523,W,222345.000,A,D*59
$GNVTG,082.25,T,,M,0.008,N,0.015,K,D*27
$GNGSA,A,3,05,06,11,12,20,25,28,29,31,,,,0.88,0.51,0.71,1*05
$GNGSA,A,3,65,66,72,73,79,80,81,82,88,,,,0.88,0.51,0.71,2*07
$GNGSA,A,3,02,27,30,34,36,11,15,,,,,,0.88,0.51,0.71,3*03
$GNGSA,A,3,06,14,16,27,28,30,33,36,39,41,45,,0.88,0.51,0.71,4*05
$GNGSA,A,3,,,,,,,,,,,,,0.88,0.51,0.71,5*07
$GPGSV,3,1,10,05,27,153,23,06,21,051,31,11,53,060,38,12,54,162,37,1*6A
$GPGSV,3,2,10,20,48,111,43,25,69,251,43,28,23,297,39,29,42,281,43,1*69
$GPGSV,3,3,10,31,14,321,34,46,33,187,40,1*6D
$GPGSV,1,1,04,06,21,051,40,11,53,060,34,25,69,251,44,28,23,297,30,8*61
$GLGSV,3,1,09,65,19,050,25,66,09,098,32,72,06,358,17,73,15,330,16,1*7F
$GLGSV,3,2,09,79,41,186,33,80,61,285,42,81,61,032,30,82,58,265,45,1*79
$GLGSV,3,3,09,88,10,056,29,1*48
$GAGSV,2,1,05,02,46,153,24,27,20,311,30,30,69,277,42,34,67,204,42,7*7D
$GAGSV,2,2,05,36,54,056,33,7*41
$GAGSV,2,1,07,02,46,153,26,11,06,046,18,15,16,220,25,27,20,311,30,1*7C
$GAGSV,2,2,07,30,69,277,38,34,67,204,37,36,54,056,29,1*4F
$GBGSV,3,1,11,06,11,333,25,14,09,027,23,16,16,327,24,27,68,061,35,1*74
$GBGSV,3,2,11,28,22,070,31,30,55,261,46,33,17,051,33,36,45,278,42,1*71
$GBGSV,3,3,11,39,19,321,30,41,17,101,35,45,13,322,28,1*48
$GBGSV,2,1,08,27,68,061,37,28,22,070,35,30,55,261,45,33,17,051,35,5*79
$GBGSV,2,2,08,36,45,278,42,39,19,321,27,41,17,101,33,45,13,322,31,5*73
$GQGSV,1,1,00,1*65
$GQGSV,1,1,00,8*6C
$GNGGA,222346.000,4911.280911,N,12307.016522,W,2,36,0.49,4.408,M,-16.829,M,,*42
$GNRMC,222346.000,A,4911.280911,N,12307.016522,W,0.005,082.25,150325,,,D,V*2D
$GNGLL,4911.280911,N,12307.016522,W,222346.000,A,D*58
$GNVTG,082.25,T,,M,0.005,N,0.010,K,D*2F
$GNGSA,A,3,05,06,11,12,20,25,28,29,31,,,,0.81,0.49,0.65,1*00
$GNGSA,A,3,65,66,72,73,79,80,81,82,88,,,,0.81,0.49,0.65,2*02
$GNGSA,A,3,02,27,30,34,36,11,15,,,,,,0.81,0.49,0.65,3*06
$GNGSA,A,3,06,14,16,27,28,30,33,36,39,41,45,,0.81,0.49,0.65,4*00
$GNGSA,A,3,,,,,,,,,,,,,0.81,0.49,0.65,5*02
$GPGSV,3,1,10,05,27,153,24,06,21,051,31,11,53,060,38,12,54,162,37,1*6D
$GPGSV,3,2,10,20,48,111,43,25,69,251,43,28,23,297,39,29,42,281,43,1*69
$GPGSV,3,3,10,31,14,321,34,46,33,187,40,1*6D
$GPGSV,1,1,04,06,21,051,40,11,53,060,33,25,69,251,43,28,23,297,30,8*61
$GLGSV,3,1,09,65,19,050,25,66,09,098,31,72,06,358,17,73,15,330,16,1*7C
$GLGSV,3,2,09,79,41,186,33,80,61,285,41,81,61,032,30,82,58,265,45,1*7A
$GLGSV,3,3,09,88,10,056,29,1*48
$GAGSV,2,1,05,02,46,153,25,27,20,311,30,30,69,277,41,34,67,204,42,7*7F
$GAGSV,2,2,05,36,54,056,34,7*46
$GAGSV,2,1,07,02,46,153,24,11,06,046,19,15,16,220,25,27,20,311,30,1*7F
$GAGSV,2,2,07,30,69,277,38,34,67,204,38,36,54,056,29,1*40
$GBGSV,3,1,11,06,11,333,24,14,09,027,24,16,16,327,24,27,68,061,35,1*72
$GBGSV,3,2,11,28,22,070,32,30,55,261,46,33,17,051,33,36,45,278,41,1*71
$GBGSV,3,3,11,39,19,321,30,41,17,101,35,45,13,322,28,1*48
$GBGSV,2,1,08,27,68,061,37,28,22,070,35,30,55,261,45,33,17,051,35,5*79
$GBGSV,2,2,08,36,45,278,41,39,19,321,26,41,17,101,32,45,13,322,30,5*71
$GQGSV,1,1,00,1*65
$GQGSV,1,1,00,8*6C
$GNGGA,222347.000,4911.280911,N,12307.016521,W,2,36,0.48,4.407,M,-16.829,M,,*4E
$GNRMC,222347.000,A,4911.280911,N,12307.016521,W,0.006,082.25,150325,,,D,V*2C
$GNGLL,4911.280911,N,12307.016521,W,222347.000,A,D*5A
$GNVTG,082.25,T,,M,0.006,N,0.012,K,D*2E
$GNGSA,A,3,05,06,11,12,20,25,28,29,31,,,,0.81,0.48,0.65,1*01
$GNGSA,A,3,65,66,72,73,79,80,81,82,88,,,,0.81,0.48,0.65,2*03
$GNGSA,A,3,02,27,30,34,36,11,15,,,,,,0.81,0.48,0.65,3*07
$GNGSA,A,3,06,14,16,27,28,30,33,36,39,41,45,,0.81,0.48,0.65,4*01
$GNGSA,A,3,,,,,,,,,,,,,0.81,0.48,0.65,5*03
$GPGSV,3,1,10,05,27,153,22,06,21,051,31,11,53,060,38,12,54,162,37,1*6B
$GPGSV,3,2,10,20,48,111,43,25,69,251,43,28,23,297,39,29,42,281,43,1*69
$GPGSV,3,3,10,31,14,321,34,46,33,187,40,1*6D
$GPGSV,1,1,04,06,21,051,41,11,53,060,35,25,69,251,43,28,23,297,30,8*66
$GLGSV,3,1,09,65,19,050,24,66,09,098,31,72,06,358,18,73,15,330,17,1*73
$GLGSV,3,2,09,79,41,186,33,80,61,285,42,81,61,032,30,82,58,265,44,1*78
$GLGSV,3,3,09,88,10,056,29,1*48
$GAGSV,2,1,05,02,46,153,24,27,20,311,30,30,69,277,42,34,67,204,42,7*7D
$GAGSV,2,2,05,36,54,056,34,7*46
$GAGSV,2,1,07,02,46,153,25,11,06,046,18,15,16,220,25,27,20,311,30,1*7F
$GAGSV,2,2,07,30,69,277,38,34,67,204,38,36,54,056,29,1*40
$GBGSV,3,1,11,06,11,333,24,14,09,027,24,16,16,327,24,27,68,061,35,1*72
$GBGSV,3,2,11,28,22,070,31,30,55,261,46,33,17,051,34,36,45,278,41,1*75
$GBGSV,3,3,11,39,19,321,31,41,17,101,35,45,13,322,28,1*49
$GBGSV,2,1,08,27,68,061,37,28,22,070,36,30,55,261,45,33,17,051,36,5*79
$GBGSV,2,2,08,36,45,278,42,39,19,321,28,41,17,101,33,45,13,322,30,5*7D
$GQGSV,1,1,00,1*65
$GQGSV,1,1,00,8*6C
$GNGGA,222348.000,4911.280910,N,12307.016523,W,2,36,0.48,4.407,M,-16.829,M,,*42
$GNRMC,222348.000,A,4911.280910,N,12307.016523,W,0.003,082.25,150325,,,D,V*25
$GNGLL,4911.280910,N,12307.016523,W,222348.000,A,D*56
$GNVTG,082.25,T,,M,0.003,N,0.006,K,D*2E
$GNGSA,A,3,05,06,11,12,20,25,28,29,31,,,,0.81,0.48,0.65,1*01
$GNGSA,A,3,65,66,72,73,79,80,81,82,88,,,,0.81,0.48,0.65,2*03
$GNGSA,A,3,02,27,30,34,36,11,15,,,,,,0.81,0.48,0.65,3*07
$GNGSA,A,3,06,14,16,27,28,30,33,36,39,41,45,,0.81,0.48,0.65,4*01
$GNGSA,A,3,,,,,,,,,,,,,0.81,0.48,0.65,5*03
$GPGSV,3,1,10,05,27,153,24,06,21,051,32,11,53,060,38,12,54,162,36,1*6F
$GPGSV,3,2,10,20,48,111,43,25,69,251,43,28,23,297,39,29,42,281,43,1*69
$GPGSV,3,3,10,31,14,321,33,46,33,187,40,1*6A
$GPGSV,1,1,04,06,21,051,40,11,53,060,33,25,69,251,43,28,23,297,29,8*69
$GLGSV,3,1,09,65,19,050,23,66,09,098,31,72,06,358,20,73,15,330,16,1*7E
$GLGSV,3,2,09,79,41,186,34,80,61,285,42,81,61,032,30,82,58,265,45,1*7E
$GLGSV,3,3,09,88,10,056,28,1*49
$GAGSV,2,1,05,02,46,153,24,27,20,311,29,30,69,277,41,34,67,204,42,7*76
$GAGSV,2,2,05,36,54,056,36,7*44
$GAGSV,2,1,07,02,46,153,25,11,06,046,17,15,16,220,25,27,20,311,29,1*78
$GAGSV,2,2,07,30,69,277,38,34,67,204,37,36,54,056,28,1*4E
$GBGSV,3,1,11,06,11,333,24,14,09,027,23,16,16,327,24,27,68,061,35,1*75
$GBGSV,3,2,11,28,22,070,31,30,55,261,46,33,17,051,33,36,45,278,42,1*71
$GBGSV,3,3,11,39,19,321,30,41,17,101,36,45,13,322,30,1*42
$GBGSV,2,1,08,27,68,061,37,28,22,070,34,30,55,261,45,33,17,051,35,5*78
$GBGSV,2,2,08,36,45,278,41,39,19,321,27,41,17,101,32,45,13,322,31,5*71
$GQGSV,1,1,00,1*65
$GQGSV,1,1,00,8*6C
$GNGGA,222349.000,4911.280909,N,12307.016525,W,2,36,0.48,4.409,M,-16.830,M,,*4B
$GNRMC,222349.000,A,4911.280909,N,12307.016525,W,0.006,082.25,150325,,,D,V*2F
$GNGLL,4911.280909,N,12307.016525,W,222349.000,A,D*59
$GNVTG,082.25,T,,M,0.006,N,0.010,K,D*2C
$GNGSA,A,3,05,06,11,12,20,25,28,29,31,,,,0.81,0.48,0.65,1*01
$GNGSA,A,3,65,66,72,73,79,80,81,82,88,,,,0.81,0.48,0.65,2*03
$GNGSA,A,3,02,27,30,34,36,11,15,,,,,,0.81,0.48,0.65,3*07
$GNGSA,A,3,06,14,16,27,28,30,33,36,39,41,45,,0.81,0.48,0.65,4*01
$GNGSA,A,3,,,,,,,,,,,,,0.81,0.48,0.65,5*03
$GPGSV,3,1,10,05,27,153,23,06,21,051,32,11,53,060,38,12,54,162,37,1*69
$GPGSV,3,2,10,20,48,111,44,25,69,251,43,28,23,297,39,29,42,281,43,1*6E
$GPGSV,3,3,10,31,14,321,34,46,33,187,40,1*6D
$GPGSV,1,1,04,06,21,051,41,11,53,060,33,25,69,251,44,28,23,297,30,8*67
$GLGSV,3,1,09,65,19,050,23,66,09,098,31,72,06,358,20,73,15,330,14,1*7C
$GLGSV,3,2,09,79,41,186,33,80,61,285,42,81,61,032,30,82,58,265,45,1*79
$GLGSV,3,3,09,88,10,056,29,1*48
$GAGSV,2,1,05,02,46,153,25,27,20,311,30,30,69,277,41,34,67,204,42,7*7F
$GAGSV,2,2,05,36,54,056,34,7*46
$GAGSV,2,1,07,02,46,153,26,11,06,046,19,15,16,220,26,27,20,311,30,1*7E
$GAGSV,2,2,07,30,69,277,38,34,67,204,37,36,54,056,29,1*4F
$GBGSV,3,1,11,06,11,333,24,14,09,027,24,16,16,327,25,27,68,061,35,1*73
$GBGSV,3,2,11,28,22,070,30,30,55,261,46,33,17,051,33,36,45,278,41,1*73
$GBGSV,3,3,11,39,19,321,31,41,17,101,36,45,13,322,28,1*4A
$GBGSV,2,1,08,27,68,061,37,28,22,070,35,30,55,261,45,33,17,051,35,5*79
$GBGSV,2,2,08,36,45,278,41,39,19,321,27,41,17,101,33,45,13,322,32,5*73
$GQGSV,1,1,00,1*65
$GQGSV,1,1,00,8*6C
$GNGGA,222350.000,4911.280908,N,12307.016526,W,2,36,0.49,4.409,M,-16.830,M,,*40
$GNRMC,222350.000,A,4911.280908,N,12307.016526,W,0.015,082.25,150325,,,D,V*27
$GNGLL,4911.280908,N,12307.016526,W,222350.000,A,D*53
$GNVTG,082.25,T,,M,0.015,N,0.027,K,D*2A
$GNGSA,A,3,05,06,11,12,20,25,28,29,31,,,,0.82,0.49,0.66,1*00
$GNGSA,A,3,65,66,72,73,79,80,81,82,88,,,,0.82,0.49,0.66,2*02
$GNGSA,A,3,02,27,30,34,36,11,15,,,,,,0.82,0.49,0.66,3*06
$GNGSA,A,3,06,14,16,27,28,30,33,36,39,41,45,,0.82,0.49,0.66,4*00
$GNGSA,A,3,,,,,,,,,,,,,0.82,0.49,0.66,5*02
$GPGSV,3,1,10,05,27,153,24,06,21,051,32,11,53,060,38,12,54,162,37,1*6E
$GPGSV,3,2,10,20,48,111,44,25,69,251,43,28,23,297,38,29,42,281,43,1*6F
$GPGSV,3,3,10,31,14,321,34,46,33,187,40,1*6D
$GPGSV,1,1,04,06,21,051,41,11,53,060,34,25,69,251,44,28,23,297,32,8*62
$GLGSV,3,1,09,65,19,050,23,66,09,098,31,72,06,358,22,73,15,330,16,1*7C
$GLGSV,3,2,09,79,41,186,33,80,61,285,41,81,61,032,30,82,58,265,45,1*7A
$GLGSV,3,3,09,88,10,056,29,1*48
$GAGSV,2,1,05,02,46,153,23,27,20,311,30,30,69,277,41,34,67,204,42,7*79
$GAGSV,2,2,05,36,54,056,34,7*46
$GAGSV,2,1,07,02,46,153,26,11,06,046,19,15,16,220,27,27,20,311,30,1*7F
$GAGSV,2,2,07,30,69,277,39,34,67,204,38,36,54,056,29,1*41
$GBGSV,3,1,11,06,11,333,24,14,09,027,23,16,16,327,23,27,68,061,35,1*72
$GBGSV,3,2,11,28,22,070,30,30,55,261,46,33,17,051,33,36,45,278,42,1*70
$GBGSV,3,3,11,39,19,321,30,41,17,101,36,45,13,322,29,1*4A
$GBGSV,2,1,08,27,68,061,38,28,22,070,35,30,55,261,46,33,17,051,36,5*76
$GBGSV,2,2,08,36,45,278,42,39,19,321,28,41,17,101,33,45,13,322,32,5*7F
$GQGSV,1,1,00,1*65
$GQGSV,1,1,00,8*6C
$GNGGA,222351.000,4911.280908,N,12307.016527,W,2,36,0.49,4.407,M,-16.829,M,,*46
$GNRMC,222351.000,A,4911.280908,N,12307.016527,W,0.007,082.25,150325,,,D,V*24
$GNGLL,4911.280908,N,12307.016527,W,222351.000,A,D*53
$GNVTG,082.25,T,,M,0.007,N,0.013,K,D*2E
$GNGSA,A,3,05,06,11,12,20,25,28,29,31,,,,0.82,0.49,0.66,1*00
$GNGSA,A,3,65,66,72,73,79,80,81,82,88,,,,0.82,0.49,0.66,2*02
$GNGSA,A,3,02,27,30,34,36,11,15,,,,,,0.82,0.49,0.66,3*06
$GNGSA,A,3,06,14,16,27,28,30,33,36,39,41,45,,0.82,0.49,0.66,4*00
$GNGSA,A,3,,,,,,,,,,,,,0.82,0.49,0.66,5*02
$GPGSV,3,1,10,05,27,153,23,06,21,051,32,11,53,060,38,12,54,162,36,1*68
$GPGSV,3,2,10,20,48,111,44,25,69,251,43,28,23,297,38,29,42,281,43,1*6F
$GPGSV,3,3,10,31,14,321,34,46,33,187,40,1*6D
$GPGSV,1,1,04,06,21,051,41,11,53,060,34,25,69,251,43,28,23,297,29,8*6F
$GLGSV,3,1,09,65,19,050,23,66,09,098,30,72,06,358,21,73,15,330,17,1*7F
$GLGSV,3,2,09,79,41,186,33,80,61,285,42,81,61,032,30,82,58,265,44,1*78
$GLGSV,3,3,09,88,10,056,30,1*40
$GAGSV,2,1,05,02,46,153,24,27,20,311,30,30,69,277,41,34,67,204,42,7*7E
$GAGSV,2,2,05,36,54,056,35,7*47
$GAGSV,2,1,07,02,46,153,25,11,06,046,18,15,16,220,26,27,20,311,29,1*74
$GAGSV,2,2,07,30,69,277,38,34,67,204,37,36,54,056,29,1*4F
$GBGSV,3,1,11,06,11,333,24,14,09,027,24,16,16,327,23,27,68,061,35,1*75
$GBGSV,3,2,11,28,22,070,31,30,55,261,46,33,17,051,34,36,45,278,42,1*76
$GBGSV,3,3,11,39,19,321,31,41,17,101,36,45,13,322,29,1*4B
$GBGSV,2,1,08,27,68,061,37,28,22,070,35,30,55,261,45,33,17,051,36,5*7A
$GBGSV,2,2,08,36,45,278,41,39,19,321,28,41,17,101,32,45,13,322,30,5*7F
$GQGSV,1,1,00,1*65
$GQGSV,1,1,00,8*6C
$GNGGA,222352.000,4911.280908,N,12307.016523,W,2,36,0.52,4.407,M,-16.830,M,,*43
$GNRMC,222352.000,A,4911.280908,N,12307.016523,W,0.012,082.25,150325,,,D,V*27
$GNGLL,4911.280908,N,12307.016523,W,222352.000,A,D*54
$GNVTG,082.25,T,,M,0.012,N,0.023,K,D*29
$GNGSA,A,3,05,06,11,12,20,25,28,29,31,,,,0.89,0.52,0.72,1*04
$GNGSA,A,3,65,66,72,73,79,80,81,82,88,,,,0.89,0.52,0.72,2*06
$GNGSA,A,3,02,27,30,34,36,11,15,,,,,,0.89,0.52,0.72,3*02
$GNGSA,A,3,06,14,16,27,28,30,33,36,39,41,45,,0.89,0.52,0.72,4*04
$GNGSA,A,3,,,,,,,,,,,,,0.89,0.52,0.72,5*06
$GPGSV,3,1,10,05,27,153,24,06,21,051,33,11,53,060,38,12,54,162,36,1*6E
$GPGSV,3,2,10,20,48,111,44,25,69,251,43,28,23,297,39,29,43,281,43,1*6F
$GPGSV,3,3,10,31,14,321,33,46,33,187,40,1*6A
$GPGSV,1,1,04,06,21,051,40,11,53,060,34,25,69,251,43,28,23,297,30,8*66
$GLGSV,3,1,09,65,19,050,22,66,09,098,31,72,06,358,21,73,15,330,16,1*7E
$GLGSV,3,2,09,79,41,186,34,80,61,285,42,81,61,032,30,82,58,265,45,1*7E
$GLGSV,3,3,09,88,10,056,29,1*48
$GAGSV,2,1,05,02,46,153,25,27,20,311,30,30,69,277,42,34,67,204,42,7*7C
$GAGSV,2,2,05,36,54,056,35,7*47
$GAGSV,2,1,07,02,46,153,25,11,06,046,19,15,16,220,26,27,20,311,30,1*7D
$GAGSV,2,2,07,30,69,277,39,34,67,204,37,36,54,056,29,1*4E
$GBGSV,3,1,11,06,11,333,23,14,09,027,25,16,16,327,23,27,68,061,35,1*73
$GBGSV,3,2,11,28,22,070,32,30,55,261,46,33,17,051,33,36,45,278,42,1*72
$GBGSV,3,3,11,39,19,321,31,41,17,101,36,45,13,322,30,1*43
$GBGSV,2,1,08,27,68,061,37,28,22,070,36,30,55,261,45,33,17,051,35,5*7A
$GBGSV,2,2,08,36,45,278,41,39,19,321,26,41,17,101,32,45,13,322,30,5*71
$GQGSV,1,1,00,1*65
$GQGSV,1,1,00,8*6C
$GNGGA,222353.000,4911.280908,N,12307.016526,W,2,36,0.48,4.406,M,-16.829,M,,*45
$GNRMC,222353.000,A,4911.280908,N,12307.016526,W,0.004,082.25,150325,,,D,V*24
$GNGLL,4911.280908,N,12307.016526,W,222353.000,A,D*50
$GNVTG,082.25,T,,M,0.004,N,0.007,K,D*28
$GNGSA,A,3,05,06,11,12,20,25,28,29,31,,,,0.81,0.48,0.65,1*01
$GNGSA,A,3,65,66,72,73,79,80,81,82,88,,,,0.81,0.48,0.65,2*03
$GNGSA,A,3,02,27,30,34,36,11,15,,,,,,0.81,0.48,0.65,3*07
$GNGSA,A,3,06,14,16,27,28,30,33,36,39,41,45,,0.81,0.48,0.65,4*01
$GNGSA,A,3,,,,,,,,,,,,,0.81,0.48,0.65,5*03
$GPGSV,3,1,10,05,27,153,24,06,21,051,33,11,53,060,37,12,54,162,36,1*61
$GPGSV,3,2,10,20,48,111,44,25,69,251,43,28,23,297,38,29,43,281,43,1*6E
$GPGSV,3,3,10,31,14,321,34,46,33,187,40,1*6D
$GPGSV,1,1,04,06,21,051,41,11,53,060,34,25,69,251,44,28,23,297,29,8*68
$GLGSV,3,1,09,65,19,050,22,66,09,098,31,72,06,358,20,73,15,330,17,1*7E
$GLGSV,3,2,09,79,41,186,33,80,61,285,42,81,61,032,30,82,58,265,45,1*79
$GLGSV,3,3,09,88,10,056,30,1*40
$GAGSV,2,1,05,02,46,153,25,27,20,311,30,30,69,277,41,34,67,204,42,7*7F
$GAGSV,2,2,05,36,54,056,35,7*47
$GAGSV,2,1,07,02,46,153,25,11,06,046,18,15,16,220,25,27,20,311,30,1*7F
$GAGSV,2,2,07,30,69,277,38,34,67,204,37,36,54,056,30,1*47
$GBGSV,3,1,11,06,11,333,24,14,09,027,24,16,16,327,25,27,68,061,35,1*73
$GBGSV,3,2,11,28,22,070,30,30,55,261,46,33,17,051,33,36,45,278,42,1*70
$GBGSV,3,3,11,39,19,321,30,41,17,101,36,45,13,322,29,1*4A
$GBGSV,2,1,08,27,68,061,37,28,22,070,35,30,55,261,46,33,17,051,36,5*79
$GBGSV,2,2,08,36,45,278,41,39,19,321,27,41,17,101,32,45,13,322,29,5*78
$GQGSV,1,1,00,1*65
$GQGSV,1,1,00,8*6C
$GNGGA,222354.000,4911.280908,N,12307.016529,W,2,36,0.49,4.406,M,-16.830,M,,*44
$GNRMC,222354.000,A,4911.280908,N,12307.016529,W,0.006,082.25,150325,,,D,V*2E
$GNGLL,4911.280908,N,12307.016529,W,222354.000,A,D*58
$GNVTG,082.25,T,,M,0.006,N,0.011,K,D*2D
$GNGSA,A,3,05,06,11,12,20,25,28,29,31,,,,0.82,0.49,0.66,1*00
$GNGSA,A,3,65,66,72,73,79,80,81,82,88,,,,0.82,0.49,0.66,2*02
$GNGSA,A,3,02,27,30,34,36,11,15,,,,,,0.82,0.49,0.66,3*06
$GNGSA,A,3,06,14,16,27,28,30,33,36,39,41,45,,0.82,0.49,0.66,4*00
$GNGSA,A,3,,,,,,,,,,,,,0.82,0.49,0.66,5*02
$GPGSV,3,1,10,05,27,153,25,06,21,051,33,11,53,060,37,12,54,162,36,1*60
$GPGSV,3,2,10,20,48,111,44,25,69,251,43,28,23,297,39,29,43,281,43,1*6F
$GPGSV,3,3,10,31,14,321,34,46,33,187,40,1*6D
$GPGSV,1,1,04,06,21,051,41,11,53,060,35,25,69,251,44,28,23,297,30,8*61
$GLGSV,3,1,09,65,19,050,21,66,09,098,30,72,06,358,20,73,15,330,16,1*7D
$GLGSV,3,2,09,79,41,186,33,80,61,285,41,81,61,032,30,82,58,265,45,1*7A
$GLGSV,3,3,09,88,10,056,29,1*48
$GAGSV,2,1,05,02,46,153,25,27,20,311,30,30,69,277,41,34,67,204,42,7*7F
$GAGSV,2,2,05,36,54,056,35,7*47
$GAGSV,2,1,07,02,46,153,25,11,06,046,19,15,16,220,27,27,20,311,30,1*7C
$GAGSV,2,2,07,30,69,277,38,34,67,204,37,36,54,056,30,1*47
$GBGSV,3,1,11,06,11,333,24,14,09,027,25,16,16,327,24,27,68,061,34,1*72
$GBGSV,3,2,11,28,22,070,30,30,55,261,47,33,17,051,33,36,45,278,42,1*71
$GBGSV,3,3,11,39,19,321,32,41,17,101,36,45,13,322,29,1*48
$GBGSV,2,1,08,27,68,061,37,28,22,070,35,30,55,261,45,33,17,051,36,5*7A
$GBGSV,2,2,08,36,45,278,42,39,19,321,29,41,17,101,32,45,13,322,30,5*7D
$GQGSV,1,1,00,1*65
$GQGSV,1,1,00,8*6C
$GNGGA,222355.000,4911.280908,N,12307.016533,W,2,36,0.49,4.405,M,-16.830,M,,*4D
$GNRMC,222355.000,A,4911.280908,N,12307.016533,W,0.004,082.25,150325,,,D,V*26
$GNGLL,4911.280908,N,12307.016533,W,222355.000,A,D*52
$GNVTG,082.25,T,,M,0.004,N,0.007,K,D*28
$GNGSA,A,3,05,06,11,12,20,25,28,29,31,,,,0.82,0.49,0.66,1*00
$GNGSA,A,3,65,66,72,73,79,80,81,82,88,,,,0.82,0.49,0.66,2*02
$GNGSA,A,3,02,27,30,34,36,11,15,,,,,,0.82,0.49,0.66,3*06
$GNGSA,A,3,06,14,16,27,28,30,33,36,39,41,45,,0.82,0.49,0.66,4*00
$GNGSA,A,3,,,,,,,,,,,,,0.82,0.49,0.66,5*02
$GPGSV,3,1,10,05,27,153,23,06,21,051,33,11,53,060,37,12,54,162,36,1*66
$GPGSV,3,2,10,20,48,111,44,25,69,251,43,28,23,297,39,29,43,281,43,1*6F
$GPGSV,3,3,10,31,14,321,34,46,33,187,40,1*6D
$GPGSV,1,1,04,06,21,051,41,11,53,060,34,25,69,251,43,28,23,297,29,8*6F
$GLGSV,3,1,09,65,19,050,21,66,09,098,29,72,06,358,19,73,15,330,17,1*7E
$GLGSV,3,2,09,79,41,186,33,80,61,285,42,81,61,032,29,82,58,265,44,1*70
$GLGSV,3,3,09,88,10,056,30,1*40
$GAGSV,2,1,05,02,46,153,24,27,20,311,29,30,69,277,41,34,67,204,42,7*76
$GAGSV,2,2,05,36,54,056,35,7*47
$GAGSV,2,1,07,02,46,153,25,11,06,046,18,15,16,220,27,27,20,311,29,1*75
$GAGSV,2,2,07,30,69,277,38,34,67,204,37,36,54,056,30,1*47
$GBGSV,3,1,11,06,11,333,23,14,09,027,24,16,16,327,25,27,68,061,34,1*75
$GBGSV,3,2,11,28,22,070,30,30,55,261,46,33,17,051,33,36,45,278,42,1*70
$GBGSV,3,3,11,39,19,321,31,41,17,101,37,45,13,322,28,1*4B
$GBGSV,2,1,08,27,68,061,37,28,22,070,35,30,55,261,45,33,17,051,36,5*7A
$GBGSV,2,2,08,36,45,278,41,39,19,321,27,41,17,101,32,45,13,322,31,5*71
$GQGSV,1,1,00,1*65
$GQGSV,1,1,00,8*6C
$GNGGA,222356.000,4911.280908,N,12307.016540,W,2,36,0.51,4.403,M,-16.829,M,,*4D
$GNRMC,222356.000,A,4911.280908,N,12307.016540,W,0.003,082.25,150325,,,D,V*26
$GNGLL,4911.280908,N,12307.016540,W,222356.000,A,D*55
$GNVTG,082.25,T,,M,0.003,N,0.005,K,D*2D
$GNGSA,A,3,05,06,11,12,20,25,28,29,31,,,,0.83,0.51,0.66,1*08
$GNGSA,A,3,65,66,72,73,79,80,81,82,88,,,,0.83,0.51,0.66,2*0A
$GNGSA,A,3,02,27,30,34,36,11,15,,,,,,0.83,0.51,0.66,3*0E
$GNGSA,A,3,06,14,16,27,28,30,33,36,39,41,45,,0.83,0.51,0.66,4*08
$GNGSA,A,3,,,,,,,,,,,,,0.83,0.51,0.66,5*0A
$GPGSV,3,1,10,05,27,153,22,06,21,051,33,11,53,060,37,12,54,162,36,1*67
$GPGSV,3,2,10,20,48,111,44,25,69,251,43,28,23,297,39,29,43,281,43,1*6F
$GPGSV,3,3,10,31,14,321,34,46,33,187,40,1*6D
$GPGSV,1,1,04,06,21,051,40,11,53,060,34,25,69,251,43,28,23,297,28,8*6F
$GLGSV,3,1,09,65,19,050,22,66,09,098,29,72,06,358,20,73,15,330,18,1*78
$GLGSV,3,2,09,79,41,186,33,80,61,285,41,81,61,032,30,82,58,265,45,1*7A
$GLGSV,3,3,09,88,10,056,30,1*40
$GAGSV,2,1,05,02,46,153,25,27,20,311,29,30,69,277,41,34,67,204,42,7*77
$GAGSV,2,2,05,36,54,056,36,7*44
$GAGSV,2,1,07,02,46,153,25,11,06,046,17,15,16,220,25,27,20,311,29,1*78
$GAGSV,2,2,07,30,69,277,37,34,67,204,38,36,54,056,29,1*4F
$GBGSV,3,1,11,06,11,333,24,14,09,027,23,16,16,327,25,27,68,061,34,1*75
$GBGSV,3,2,11,28,22,070,31,30,55,261,47,33,17,051,34,36,45,278,42,1*77
$GBGSV,3,3,11,39,19,321,32,41,17,101,36,45,13,322,29,1*48
$GBGSV,2,1,08,27,68,061,37,28,22,070,34,30,55,261,45,33,17,051,35,5*78
$GBGSV,2,2,08,36,45,278,41,39,19,321,26,41,17,101,30,45,13,322,29,5*7B
$GQGSV,1,1,00,1*65
$GQGSV,1,1,00,8*6C
$GNGGA,222357.000,4911.280907,N,12307.016548,W,2,36,0.53,4.403,M,-16.830,M,,*41
$GNRMC,222357.000,A,4911.280907,N,12307.016548,W,0.006,082.25,150325,,,D,V*25
$GNGLL,4911.280907,N,12307.016548,W,222357.000,A,D*53
$GNVTG,082.25,T,,M,0.006,N,0.010,K,D*2C
$GNGSA,A,3,05,06,11,12,20,25,28,29,31,,,,0.85,0.53,0.67,1*0D
$GNGSA,A,3,65,66,72,73,79,80,81,82,88,,,,0.85,0.53,0.67,2*0F
$GNGSA,A,3,02,27,30,34,36,11,15,,,,,,0.85,0.53,0.67,3*0B
$GNGSA,A,3,06,14,16,27,28,30,33,36,39,41,45,,0.85,0.53,0.67,4*0D
$GNGSA,A,3,,,,,,,,,,,,,0.85,0.53,0.67,5*0F
$GPGSV,3,1,10,05,27,153,23,06,21,051,33,11,53,060,37,12,54,162,37,1*67
$GPGSV,3,2,10,20,48,111,44,25,69,251,43,28,23,297,38,29,43,281,43,1*6E
$GPGSV,3,3,10,31,14,321,34,46,33,187,40,1*6D
$GPGSV,1,1,04,06,21,051,40,11,53,060,35,25,69,251,43,28,23,297,28,8*6E
$GLGSV,3,1,09,65,19,050,23,66,09,098,29,72,06,358,20,73,15,330,16,1*77
$GLGSV,3,2,09,79,41,186,32,80,61,285,42,81,61,032,31,82,58,265,45,1*79
$GLGSV,3,3,09,88,10,056,30,1*40
$GAGSV,2,1,05,02,46,153,25,27,20,311,30,30,69,277,41,34,67,204,42,7*7F
$GAGSV,2,2,05,36,54,056,36,7*44
$GAGSV,2,1,07,02,46,153,25,11,06,046,17,15,16,220,25,27,20,311,29,1*78
$GAGSV,2,2,07,30,69,277,37,34,67,204,37,36,54,056,30,1*48
$GBGSV,3,1,11,06,11,333,23,14,09,027,24,16,16,327,24,27,68,061,34,1*74
$GBGSV,3,2,11,28,22,070,30,30,55,261,46,33,17,051,33,36,45,278,42,1*70
$GBGSV,3,3,11,39,19,321,31,41,17,101,36,45,13,322,30,1*43
$GBGSV,2,1,08,27,68,061,37,28,22,070,34,30,55,261,45,33,17,051,35,5*78
$GBGSV,2,2,08,36,45,278,41,39,19,321,26,41,17,101,30,45,13,322,30,5*73
$GQGSV,1,1,00,1*65
$GQGSV,1,1,00,8*6C
$GNGGA,222358.000,4911.280908,N,12307.016553,W,2,36,0.48,4.401,M,-16.829,M,,*4B
$GNRMC,222358.000,A,4911.280908,N,12307.016553,W,0.010,082.25,150325,,,D,V*28
$GNGLL,4911.280908,N,12307.016553,W,222358.000,A,D*59
$GNVTG,082.25,T,,M,0.010,N,0.018,K,D*23
$GNGSA,A,3,05,06,11,12,20,25,28,29,31,,,,0.81,0.48,0.65,1*01
$GNGSA,A,3,65,66,72,73,79,80,81,82,88,,,,0.81,0.48,0.65,2*03
$GNGSA,A,3,02,27,30,34,36,11,15,,,,,,0.81,0.48,0.65,3*07
$GNGSA,A,3,06,14,16,27,28,30,33,36,39,41,45,,0.81,0.48,0.65,4*01
$GNGSA,A,3,,,,,,,,,,,,,0.81,0.48,0.65,5*03
$GPGSV,3,1,10,05,27,153,23,06,21,051,34,11,53,060,37,12,54,162,36,1*61
$GPGSV,3,2,10,20,48,111,44,25,69,251,43,28,23,297,38,29,43,281,43,1*6E
$GPGSV,3,3,10,31,14,321,34,46,33,187,40,1*6D
$GPGSV,1,1,04,06,21,051,40,11,53,060,35,25,69,251,44,28,23,297,30,8*60
$GLGSV,3,1,09,65,19,050,23,66,09,098,28,72,06,358,21,73,15,330,17,1*76
$GLGSV,3,2,09,79,41,186,32,80,61,285,41,81,61,032,30,82,58,265,45,1*7B
$GLGSV,3,3,09,88,10,056,31,1*41
$GAGSV,2,1,05,02,46,153,24,27,20,311,30,30,69,277,41,34,67,204,42,7*7E
$GAGSV,2,2,05,36,53,056,36,7*43
$GAGSV,2,1,07,02,46,153,24,11,06,046,19,15,16,220,27,27,20,311,30,1*7D
$GAGSV,2,2,07,30,69,277,38,34,67,204,37,36,53,056,30,1*40
$GBGSV,3,1,11,06,11,333,24,14,09,027,23,16,16,327,23,27,68,061,34,1*73
$GBGSV,3,2,11,28,22,070,30,30,55,261,46,33,17,051,33,36,45,278,42,1*70
$GBGSV,3,3,11,39,19,321,30,41,17,101,36,45,13,322,29,1*4A
$GBGSV,2,1,08,27,68,061,38,28,22,070,35,30,55,261,45,33,17,051,36,5*75
$GBGSV,2,2,08,36,45,278,41,39,19,321,27,41,17,101,32,45,13,322,30,5*70
$GQGSV,1,1,00,1*65
$GQGSV,1,1,00,8*6C
$GNGGA,222359.000,4911.280909,N,12307.016559,W,2,36,0.48,4.400,M,-16.829,M,,*40
$GNRMC,222359.000,A,4911.280909,N,12307.016559,W,0.005,082.25,150325,,,D,V*26
$GNGLL,4911.280909,N,12307.016559,W,222359.000,A,D*53
$GNVTG,082.25,T,,M,0.005,N,0.010,K,D*2F
$GNGSA,A,3,05,06,11,12,20,25,28,29,31,,,,0.81,0.48,0.65,1*01
$GNGSA,A,3,65,66,72,73,79,80,81,82,88,,,,0.81,0.48,0.65,2*03
$GNGSA,A,3,02,27,30,34,36,11,15,,,,,,0.81,0.48,0.65,3*07
$GNGSA,A,3,06,14,16,27,28,30,33,36,39,41,45,,0.81,0.48,0.65,4*01
$GNGSA,A,3,,,,,,,,,,,,,0.81,0.48,0.65,5*03
$GPGSV,3,1,10,05,27,153,24,06,21,051,33,11,53,060,37,12,54,162,37,1*60
$GPGSV,3,2,10,20,48,111,44,25,69,251,43,28,23,297,39,29,43,281,43,1*6F
$GPGSV,3,3,10,31,14,321,33,46,33,187,40,1*6A
$GPGSV,1,1,04,06,21,051,39,11,53,060,35,25,69,251,43,28,23,297,29,8*61
$GLGSV,3,1,09,65,19,050,23,66,09,098,27,72,06,358,21,73,15,330,17,1*79
$GLGSV,3,2,09,79,41,186,32,80,61,285,42,81,61,032,30,82,58,265,44,1*79
$GLGSV,3,3,09,88,10,056,30,1*40
$GAGSV,2,1,05,02,46,153,25,27,20,311,30,30,69,277,41,34,67,204,43,7*7E
$GAGSV,2,2,05,36,53,056,36,7*43
$GAGSV,2,1,07,02,46,153,24,11,06,046,18,15,16,220,27,27,20,311,29,1*74
$GAGSV,2,2,07,30,69,277,38,34,67,204,37,36,53,056,30,1*40
$GBGSV,3,1,11,06,11,333,24,14,09,027,23,16,16,327,24,27,68,061,33,1*73
$GBGSV,3,2,11,28,22,070,31,30,55,261,46,33,17,051,33,36,45,278,42,1*71
$GBGSV,3,3,11,39,19,321,32,41,17,101,36,45,13,322,29,1*48
$GBGSV,2,1,08,27,68,061,37,28,22,070,35,30,55,261,45,33,17,051,36,5*7A
$GBGSV,2,2,08,36,45,278,41,39,19,321,26,41,17,101,31,45,13,322,30,5*72
$GQGSV,1,1,00,1*65
$GQGSV,1,1,00,8*6C
$GNGGA,222400.000,4911.280907,N,12307.016568,W,2,36,0.49,4.400,M,-16.829,M,,*46
$GNRMC,222400.000,A,4911.280907,N,12307.016568,W,0.013,082.25,150325,,,D,V*26
$GNGLL,4911.280907,N,12307.016568,W,222400.000,A,D*54
$GNVTG,082.25,T,,M,0.013,N,0.024,K,D*2F
$GNGSA,A,3,05,06,11,12,20,25,28,29,31,,,,0.82,0.49,0.66,1*00
$GNGSA,A,3,65,66,72,73,79,80,81,82,88,,,,0.82,0.49,0.66,2*02
$GNGSA,A,3,02,27,30,34,36,11,15,,,,,,0.82,0.49,0.66,3*06
$GNGSA,A,3,06,14,16,27,28,30,33,36,39,41,45,,0.82,0.49,0.66,4*00
$GNGSA,A,3,,,,,,,,,,,,,0.82,0.49,0.66,5*02
$GPGSV,3,1,10,05,27,153,23,06,21,051,34,11,53,060,37,12,54,162,36,1*61
$GPGSV,3,2,10,20,48,111,44,25,69,251,43,28,23,297,39,29,43,281,43,1*6F
$GPGSV,3,3,10,31,14,321,33,46,33,187,40,1*6A
$GPGSV,1,1,04,06,21,051,41,11,53,060,35,25,69,251,44,28,23,297,29,8*69
$GLGSV,3,1,09,65,19,050,24,66,09,098,28,72,06,358,20,73,15,330,16,1*71
$GLGSV,3,2,09,79,41,186,32,80,61,285,41,81,61,032,30,82,58,265,45,1*7B
$GLGSV,3,3,09,88,10,056,30,1*40
$GAGSV,2,1,05,02,46,153,25,27,21,311,28,30,69,277,41,34,67,204,42,7*77
$GAGSV,2,2,05,36,53,056,36,7*43
$GAGSV,2,1,07,02,46,153,25,11,06,046,17,15,16,220,26,27,21,311,30,1*72
$GAGSV,2,2,07,30,69,277,38,34,67,204,37,36,53,056,31,1*41
$GBGSV,3,1,11,06,11,333,24,14,09,027,23,16,16,327,24,27,68,061,33,1*73
$GBGSV,3,2,11,28,22,070,29,30,55,261,46,33,17,051,33,36,45,278,42,1*78
$GBGSV,3,3,11,39,19,321,30,41,17,101,36,45,13,322,30,1*42
$GBGSV,2,1,08,27,68,061,38,28,22,070,36,30,55,261,46,33,17,051,36,5*75
$GBGSV,2,2,08,36,45,278,41,39,19,321,27,41,17,101,31,45,13,322,30,5*73
$GQGSV,1,1,00,1*65
$GQGSV,1,1,00,8*6C
$GNGGA,222401.000,4911.280905,N,12307.016576,W,2,36,0.50,4.402,M,-16.829,M,,*40
$GNRMC,222401.000,A,4911.280905,N,12307.016576,W,0.012,082.25,150325,,,D,V*2B
$GNGLL,4911.280905,N,12307.016576,W,222401.000,A,D*58
$GNVTG,082.25,T,,M,0.012,N,0.022,K,D*28
$GNGSA,A,3,05,06,11,12,20,25,28,29,31,,,,0.83,0.50,0.66,1*09
$GNGSA,A,3,65,66,72,73,79,80,81,82,88,,,,0.83,0.50,0.66,2*0B
$GNGSA,A,3,02,27,30,34,36,11,15,,,,,,0.83,0.50,0.66,3*0F
$GNGSA,A,3,06,14,16,27,28,30,33,36,39,41,45,,0.83,0.50,0.66,4*09
$GNGSA,A,3,,,,,,,,,,,,,0.83,0.50,0.66,5*0B
$GPGSV,3,1,10,05,27,153,22,06,21,051,34,11,53,060,36,12,54,162,36,1*61
$GPGSV,3,2,10,20,48,111,44,25,69,251,43,28,23,297,39,29,43,281,43,1*6F
$GPGSV,3,3,10,31,14,321,33,46,33,187,40,1*6A
$GPGSV,1,1,04,06,21,051,40,11,53,060,35,25,69,251,44,28,23,297,29,8*68
$GLGSV,3,1,09,65,19,050,23,66,09,098,28,72,06,358,20,73,15,330,14,1*74
$GLGSV,3,2,09,79,41,186,32,80,61,285,42,81,61,032,30,82,58,265,45,1*78
$GLGSV,3,3,09,88,10,056,30,1*40
$GAGSV,2,1,05,02,46,153,25,27,21,311,30,30,69,277,41,34,67,204,42,7*7E
$GAGSV,2,2,05,36,53,056,36,7*43
$GAGSV,2,1,07,02,46,153,25,11,06,046,19,15,16,220,26,27,21,311,30,1*7C
$GAGSV,2,2,07,30,69,277,38,34,67,204,38,36,53,056,30,1*4F
$GBGSV,3,1,11,06,11,333,23,14,09,027,24,16,16,327,24,27,68,061,34,1*74
$GBGSV,3,2,11,28,22,070,30,30,55,261,46,33,17,051,32,36,45,278,42,1*71
$GBGSV,3,3,11,39,19,321,31,41,17,101,36,45,13,322,30,1*43
$GBGSV,2,1,08,27,68,061,38,28,22,070,35,30,55,261,45,33,17,051,36,5*75
$GBGSV,2,2,08,36,45,278,41,39,19,321,27,41,17,101,30,45,13,322,29,5*7A
$GQGSV,1,1,00,1*65
$GQGSV,1,1,00,8*6C
$GNGGA,222402.000,4911.280903,N,12307.016581,W,2,36,0.48,4.402,M,-16.829,M,,*44
$GNRMC,222402.000,A,4911.280903,N,12307.016581,W,0.004,082.25,150325,,,D,V*21
$GNGLL,4911.280903,N,12307.016581,W,222402.000,A,D*55
$GNVTG,082.25,T,,M,0.004,N,0.007,K,D*28
$GNGSA,A,3,05,06,11,12,20,25,28,29,31,,,,0.83,0.48,0.68,1*0E
$GNGSA,A,3,65,66,72,73,79,80,81,82,88,,,,0.83,0.48,0.68,2*0C
$GNGSA,A,3,02,27,30,34,36,11,15,,,,,,0.83,0.48,0.68,3*08
$GNGSA,A,3,06,14,16,27,28,30,33,36,39,41,45,,0.83,0.48,0.68,4*0E
$GNGSA,A,3,,,,,,,,,,,,,0.83,0.48,0.68,5*0C
$GPGSV,3,1,10,05,27,153,22,06,21,051,34,11,53,060,36,12,54,162,36,1*61
$GPGSV,3,2,10,20,48,111,44,25,69,251,43,28,23,297,39,29,43,281,43,1*6F
$GPGSV,3,3,10,31,14,321,33,46,33,187,40,1*6A
$GPGSV,1,1,04,06,21,051,41,11,53,060,35,25,69,251,44,28,23,297,30,8*61
$GLGSV,3,1,09,65,19,050,23,66,09,098,27,72,06,358,19,73,15,330,16,1*73
$GLGSV,3,2,09,79,41,186,32,80,61,285,41,81,61,032,31,82,58,265,44,1*7B
$GLGSV,3,3,09,88,10,056,30,1*40
$GAGSV,2,1,05,02,46,153,26,27,21,311,29,30,69,277,41,34,67,204,42,7*75
$GAGSV,2,2,05,36,53,056,36,7*43
$GAGSV,2,1,07,02,46,153,25,11,06,046,20,15,16,220,26,27,21,311,30,1*76
$GAGSV,2,2,07,30,69,277,38,34,67,204,37,36,53,056,30,1*40
$GBGSV,3,1,11,06,11,333,23,14,09,027,23,16,16,327,24,27,68,061,33,1*74
$GBGSV,3,2,11,28,22,070,30,30,55,261,46,33,17,051,32,36,45,278,42,1*71
$GBGSV,3,3,11,39,19,321,30,41,17,101,36,45,13,322,30,1*42
$GBGSV,2,1,08,27,68,061,38,28,22,070,36,30,55,261,46,33,17,051,36,5*75
$GBGSV,2,2,08,36,45,278,42,39,19,321,28,41,17,101,30,45,13,322,30,5*7E
$GQGSV,1,1,00,1*65
$GQGSV,1,1,00,8*6C
$GNGGA,222403.000,4911.280902,N,12307.016587,W,2,36,0.51,4.402,M,-16.830,M,,*42
$GNRMC,222403.000,A,4911.280902,N,12307.016587,W,0.008,082.25,150325,,,D,V*2B
$GNGLL,4911.280902,N,12307.016587,W,222403.000,A,D*53
$GNVTG,082.25,T,,M,0.008,N,0.015,K,D*27
$GNGSA,A,3,05,06,11,12,20,25,28,29,31,,,,0.87,0.51,0.71,1*0A
$GNGSA,A,3,65,66,72,73,79,80,81,82,88,,,,0.87,0.51,0.71,2*08
$GNGSA,A,3,02,27,30,34,36,11,15,,,,,,0.87,0.51,0.71,3*0C
$GNGSA,A,3,06,14,16,27,28,30,33,36,39,41,45,,0.87,0.51,0.71,4*0A
$GNGSA,A,3,,,,,,,,,,,,,0.87,0.51,0.71,5*08
$GPGSV,3,1,10,05,27,153,22,06,21,051,33,11,53,060,36,12,54,162,36,1*66
$GPGSV,3,2,10,20,48,111,44,25,69,251,43,28,23,297,39,29,43,281,43,1*6F
$GPGSV,3,3,10,31,14,321,33,46,33,187,40,1*6A
$GPGSV,1,1,04,06,21,051,40,11,53,060,34,25,69,251,43,28,23,297,28,8*6F
$GLGSV,3,1,09,65,19,050,22,66,09,098,28,72,06,358,20,73,15,330,17,1*76
$GLGSV,3,2,09,79,41,186,32,80,61,285,42,81,61,032,30,82,58,265,45,1*78
$GLGSV,3,3,09,88,10,056,29,1*48
$GAGSV,2,1,05,02,46,153,25,27,21,311,29,30,69,277,41,34,67,204,42,7*76
$GAGSV,2,2,05,36,53,056,35,7*40
$GAGSV,2,1,07,02,46,153,24,11,06,046,17,15,16,220,27,27,21,311,28,1*7B
$GAGSV,2,2,07,30,69,277,38,34,67,204,36,36,53,056,30,1*41
$GBGSV,3,1,11,06,11,333,24,14,09,027,24,16,16,327,25,27,68,061,33,1*75
$GBGSV,3,2,11,28,22,070,30,30,55,261,46,33,17,051,33,36,45,278,42,1*70
$GBGSV,3,3,11,39,19,321,31,41,17,101,36,45,13,322,29,1*4B
$GBGSV,2,1,08,27,68,061,37,28,22,070,35,30,55,261,45,33,17,051,36,5*7A
$GBGSV,2,2,08,36,45,278,41,39,19,321,25,41,17,101,29,45,13,322,30,5*78
$GQGSV,1,1,00,1*65
$GQGSV,1,1,00,8*6C
$GNGGA,222404.000,4911.280901,N,12307.016591,W,2,36,0.49,4.401,M,-16.829,M,,*43
$GNRMC,222404.000,A,4911.280901,N,12307.016591,W,0.003,082.25,150325,,,D,V*23
$GNGLL,4911.280901,N,12307.016591,W,222404.000,A,D*50
$GNVTG,082.25,T,,M,0.003,N,0.005,K,D*2D
$GNGSA,A,3,05,06,11,12,20,25,28,29,31,,,,0.86,0.49,0.70,1*03
$GNGSA,A,3,65,66,72,73,79,80,81,82,88,,,,0.86,0.49,0.70,2*01
$GNGSA,A,3,02,27,30,34,36,11,15,,,,,,0.86,0.49,0.70,3*05
$GNGSA,A,3,06,14,16,27,28,30,33,36,39,41,45,,0.86,0.49,0.70,4*03
$GNGSA,A,3,,,,,,,,,,,,,0.86,0.49,0.70,5*01
$GPGSV,3,1,10,05,27,153,22,06,21,051,34,11,53,060,36,12,54,162,36,1*61
$GPGSV,3,2,10,20,48,111,44,25,69,251,43,28,23,297,39,29,43,281,43,1*6F
$GPGSV,3,3,10,31,14,321,33,46,33,187,40,1*6A
$GPGSV,1,1,04,06,21,051,41,11,53,060,35,25,69,251,44,28,23,297,30,8*61
$GLGSV,3,1,09,65,19,050,22,66,09,098,27,72,06,358,19,73,15,330,15,1*71
$GLGSV,3,2,09,79,41,186,31,80,61,285,41,81,61,032,30,82,58,265,45,1*78
$GLGSV,3,3,09,88,10,056,30,1*40
$GAGSV,2,1,05,02,46,153,26,27,21,311,29,30,69,277,41,34,67,204,42,7*75
$GAGSV,2,2,05,36,53,056,36,7*43
$GAGSV,2,1,07,02,46,153,25,11,06,046,18,15,16,220,26,27,21,311,31,1*7C
$GAGSV,2,2,07,30,69,277,38,34,67,204,37,36,53,056,31,1*41
$GBGSV,3,1,11,06,11,333,23,14,09,027,23,16,16,327,24,27,68,061,33,1*74
$GBGSV,3,2,11,28,22,070,30,30,55,261,46,33,17,051,33,36,45,278,42,1*70
$GBGSV,3,3,11,39,19,321,32,41,17,101,36,45,13,322,29,1*48
$GBGSV,2,1,08,27,68,061,38,28,22,070,36,30,55,261,46,33,17,051,37,5*74
$GBGSV,2,2,08,36,45,278,42,39,19,321,27,41,17,101,31,45,13,322,30,5*70
$GQGSV,1,1,00,1*65
$GQGSV,1,1,00,8*6C
$GNGGA,222405.000,4911.280900,N,12307.016592,W,2,36,0.49,4.399,M,-16.829,M,,*46
$GNRMC,222405.000,A,4911.280900,N,12307.016592,W,0.015,082.25,150325,,,D,V*27
$GNGLL,4911.280900,N,12307.016592,W,222405.000,A,D*53
$GNVTG,082.25,T,,M,0.015,N,0.028,K,D*25
$GNGSA,A,3,05,06,11,12,20,25,28,29,31,,,,0.86,0.49,0.70,1*03
$GNGSA,A,3,65,66,72,73,79,80,81,82,88,,,,0.86,0.49,0.70,2*01
$GNGSA,A,3,02,27,30,34,36,11,15,,,,,,0.86,0.49,0.70,3*05
$GNGSA,A,3,06,14,16,27,28,30,33,36,39,41,45,,0.86,0.49,0.70,4*03
$GNGSA,A,3,,,,,,,,,,,,,0.86,0.49,0.70,5*01
$GPGSV,3,1,10,05,27,153,22,06,21,051,34,11,53,060,36,12,54,162,37,1*60
$GPGSV,3,2,10,20,48,111,44,25,69,251,43,28,23,297,39,29,43,281,43,1*6F
$GPGSV,3,3,10,31,14,321,32,46,33,187,40,1*6B
$GPGSV,1,1,04,06,21,051,41,11,53,060,35,25,69,251,44,28,23,297,28,8*68
$GLGSV,3,1,09,65,19,050,23,66,09,098,27,72,06,358,19,73,15,330,17,1*72
$GLGSV,3,2,09,79,41,186,32,80,61,285,41,81,61,032,30,82,58,265,45,1*7B
$GLGSV,3,3,09,88,10,056,29,1*48
$GAGSV,2,1,05,02,46,153,25,27,21,311,28,30,69,277,41,34,67,204,42,7*77
$GAGSV,2,2,05,36,53,056,36,7*43
$GAGSV,2,1,07,02,46,153,25,11,06,046,17,15,16,220,26,27,21,311,30,1*72
$GAGSV,2,2,07,30,69,277,38,34,67,204,37,36,53,056,31,1*41
$GBGSV,3,1,11,06,11,333,23,14,09,027,22,16,16,327,23,27,68,061,33,1*72
$GBGSV,3,2,11,28,22,070,29,30,55,261,46,33,17,051,33,36,45,278,42,1*78
$GBGSV,3,3,11,39,19,321,31,41,17,101,36,45,13,322,31,1*42
$GBGSV,2,1,08,27,68,061,38,28,22,070,35,30,55,261,45,33,17,051,37,5*74
$GBGSV,2,2,08,36,45,278,41,39,19,321,27,41,17,101,30,45,13,322,29,5*7A
$GQGSV,1,1,00,1*65
$GQGSV,1,1,00,8*6C
$GNGGA,222406.000,4911.280899,N,12307.016592,W,2,36,0.48,4.398,M,-16.830,M,,*4C
$GNRMC,222406.000,A,4911.280899,N,12307.016592,W,0.008,082.25,150325,,,D,V*29
$GNGLL,4911.280899,N,12307.016592,W,222406.000,A,D*51
$GNVTG,082.25,T,,M,0.008,N,0.015,K,D*27
$GNGSA,A,3,05,06,11,12,20,25,28,29,31,,,,0.85,0.48,0.69,1*09
$GNGSA,A,3,65,66,72,73,79,80,81,82,88,,,,0.85,0.48,0.69,2*0B
$GNGSA,A,3,02,27,30,34,36,11,15,,,,,,0.85,0.48,0.69,3*0F
$GNGSA,A,3,06,14,16,27,28,30,33,36,39,41,45,,0.85,0.48,0.69,4*09
$GNGSA,A,3,,,,,,,,,,,,,0.85,0.48,0.69,5*0B
$GPGSV,3,1,10,05,27,153,23,06,21,051,35,11,53,060,36,12,54,162,35,1*62
$GPGSV,3,2,10,20,48,111,44,25,69,250,43,28,23,297,39,29,43,281,43,1*6E
$GPGSV,3,3,10,31,14,321,31,46,33,187,40,1*68
$GPGSV,1,1,04,06,21,051,41,11,53,060,36,25,69,250,45,28,23,297,27,8*64
$GLGSV,3,1,09,65,19,050,24,66,09,098,27,72,06,358,19,73,15,330,16,1*74
$GLGSV,3,2,09,79,41,186,30,80,61,285,41,81,61,032,30,82,58,265,44,1*78
$GLGSV,3,3,09,88,10,056,30,1*40
$GAGSV,2,1,05,02,46,153,26,27,21,311,29,30,69,277,41,34,67,204,42,7*75
$GAGSV,2,2,05,36,53,056,35,7*40
$GAGSV,2,1,07,02,46,153,25,11,06,046,17,15,16,220,27,27,21,311,31,1*72
$GAGSV,2,2,07,30,69,277,39,34,67,204,38,36,53,056,31,1*4F
$GBGSV,3,1,11,06,11,333,23,14,09,027,23,16,16,327,25,27,68,061,33,1*75
$GBGSV,3,2,11,28,22,070,29,30,55,261,46,33,17,051,33,36,45,278,42,1*78
$GBGSV,3,3,11,39,19,321,31,41,17,101,36,45,13,322,30,1*43
$GBGSV,2,1,08,27,68,061,38,28,22,070,36,30,55,261,46,33,17,051,37,5*74
$GBGSV,2,2,08,36,45,278,42,39,19,321,27,41,17,101,30,45,13,322,30,5*71
$GQGSV,1,1,00,1*65
$GQGSV,1,1,00,8*6C
$GNGGA,222407.000,4911.280897,N,12307.016597,W,2,36,0.48,4.397,M,-16.829,M,,*41
$GNRMC,222407.000,A,4911.280897,N,12307.016597,W,0.015,082.25,150325,,,D,V*2F
$GNGLL,4911.280897,N,12307.016597,W,222407.000,A,D*5B
$GNVTG,082.25,T,,M,0.015,N,0.028,K,D*25
$GNGSA,A,3,05,06,11,12,20,25,28,29,31,,,,0.85,0.48,0.69,1*09
$GNGSA,A,3,65,66,72,73,79,80,81,82,88,,,,0.85,0.48,0.69,2*0B
$GNGSA,A,3,02,27,30,34,36,11,15,,,,,,0.85,0.48,0.69,3*0F
$GNGSA,A,3,06,14,16,27,28,30,33,36,39,41,45,,0.85,0.48,0.69,4*09
$GNGSA,A,3,,,,,,,,,,,,,0.85,0.48,0.69,5*0B
$GPGSV,3,1,10,05,27,153,23,06,21,051,35,11,53,060,36,12,54,162,36,1*61
$GPGSV,3,2,10,20,48,111,44,25,69,250,43,28,23,297,39,29,43,281,44,1*69
$GPGSV,3,3,10,31,14,321,31,46,33,187,40,1*68
$GPGSV,1,1,04,06,21,051,40,11,53,060,35,25,69,250,44,28,23,297,28,8*68
$GLGSV,3,1,09,65,19,050,23,66,09,098,26,72,06,358,20,73,15,330,16,1*78
$GLGSV,3,2,09,79,41,186,32,80,61,285,41,81,61,032,30,82,58,265,45,1*7B
$GLGSV,3,3,09,88,10,056,30,1*40
$GAGSV,2,1,05,02,46,153,24,27,21,311,30,30,69,277,41,34,67,204,42,7*7F
$GAGSV,2,2,05,36,53,056,36,7*43
$GAGSV,2,1,07,02,46,153,25,11,06,046,17,15,16,220,26,27,21,311,29,1*7A
$GAGSV,2,2,07,30,69,277,38,34,67,204,37,36,53,056,30,1*40
$GBGSV,3,1,11,06,11,333,23,14,09,027,23,16,16,327,24,27,68,061,33,1*74
$GBGSV,3,2,11,28,22,070,30,30,55,261,46,33,17,051,32,36,45,278,42,1*71
$GBGSV,3,3,11,39,19,321,30,41,17,101,36,45,13,322,30,1*42
$GBGSV,2,1,08,27,68,061,37,28,22,070,34,30,55,261,45,33,17,051,36,5*7B
$GBGSV,2,2,08,36,45,278,41,39,19,321,27,41,17,101,29,45,13,322,29,5*72
$GQGSV,1,1,00,1*65
$GQGSV,1,1,00,8*6C
$GNGGA,222408.000,4911.280896,N,12307.016601,W,2,36,0.48,4.398,M,-16.830,M,,*44
$GNRMC,222408.000,A,4911.280896,N,12307.016601,W,0.007,082.25,150325,,,D,V*2E
$GNGLL,4911.280896,N,12307.016601,W,222408.000,A,D*59
$GNVTG,082.25,T,,M,0.007,N,0.014,K,D*29
$GNGSA,A,3,05,06,11,12,20,25,28,29,31,,,,0.82,0.48,0.66,1*01
$GNGSA,A,3,65,66,72,73,79,80,81,82,88,,,,0.82,0.48,0.66,2*03
$GNGSA,A,3,02,27,30,34,36,11,15,,,,,,0.82,0.48,0.66,3*07
$GNGSA,A,3,06,14,16,27,28,30,33,36,39,41,45,,0.82,0.48,0.66,4*01
$GNGSA,A,3,,,,,,,,,,,,,0.82,0.48,0.66,5*03
$GPGSV,3,1,10,05,27,153,22,06,21,051,35,11,53,060,36,12,54,162,36,1*60
$GPGSV,3,2,10,20,48,111,44,25,69,250,43,28,23,297,39,29,43,281,43,1*6E
$GPGSV,3,3,10,31,14,321,31,46,33,187,40,1*68
$GPGSV,1,1,04,06,21,051,40,11,53,060,35,25,69,250,44,28,23,297,28,8*68
$GLGSV,3,1,09,65,19,050,23,66,09,098,27,72,06,358,18,73,15,330,16,1*72
$GLGSV,3,2,09,79,41,186,31,80,61,285,41,81,61,032,30,82,58,265,45,1*78
$GLGSV,3,3,09,88,10,056,30,1*40
$GAGSV,2,1,05,02,46,153,25,27,21,311,29,30,69,277,41,34,67,204,43,7*77
$GAGSV,2,2,05,36,53,056,36,7*43
$GAGSV,2,1,07,02,46,153,25,11,06,046,17,15,16,220,25,27,21,311,30,1*71
$GAGSV,2,2,07,30,69,277,38,34,67,204,37,36,53,056,30,1*40
$GBGSV,3,1,11,06,11,333,23,14,09,027,23,16,16,327,24,27,68,061,32,1*75
$GBGSV,3,2,11,28,22,070,30,30,55,261,46,33,17,051,32,36,45,278,42,1*71
$GBGSV,3,3,11,39,19,321,32,41,17,101,35,45,13,322,31,1*42
$GBGSV,2,1,08,27,68,061,37,28,22,070,35,30,55,261,45,33,17,051,35,5*79
$GBGSV,2,2,08,36,45,278,41,39,19,321,26,41,17,101,29,45,13,322,29,5*73
$GQGSV,1,1,00,1*65
$GQGSV,1,1,00,8*6C
$GNGGA,222409.000,4911.280893,N,12307.016604,W,2,36,0.48,4.397,M,-16.829,M,,*42
$GNRMC,222409.000,A,4911.280893,N,12307.016604,W,0.008,082.25,150325,,,D,V*20
$GNGLL,4911.280893,N,12307.016604,W,222409.000,A,D*58
$GNVTG,082.25,T,,M,0.008,N,0.015,K,D*27
$GNGSA,A,3,05,06,11,12,20,25,28,29,31,,,,0.82,0.48,0.67,1*00
$GNGSA,A,3,65,66,72,73,79,80,81,82,88,,,,0.82,0.48,0.67,2*02
$GNGSA,A,3,02,27,30,34,36,11,15,,,,,,0.82,0.48,0.67,3*06
$GNGSA,A,3,06,14,16,27,28,30,33,36,39,41,45,,0.82,0.48,0.67,4*00
$GNGSA,A,3,,,,,,,,,,,,,0.82,0.48,0.67,5*02
$GPGSV,3,1,10,05,27,153,23,06,21,051,35,11,53,060,36,12,54,162,36,1*61
$GPGSV,3,2,10,20,48,111,44,25,69,250,43,28,23,297,39,29,43,281,44,1*69
$GPGSV,3,3,10,31,14,321,31,46,33,187,40,1*68
$GPGSV,1,1,04,06,21,051,41,11,53,060,36,25,69,250,44,28,23,297,27,8*65
$GLGSV,3,1,09,65,19,050,22,66,09,098,27,72,06,358,17,73,15,330,17,1*7D
$GLGSV,3,2,09,79,41,186,31,80,61,285,41,81,61,032,31,82,58,265,45,1*79
$GLGSV,3,3,09,88,10,056,30,1*40
$GAGSV,2,1,05,02,46,153,24,27,21,311,30,30,69,277,41,34,67,204,42,7*7F
$GAGSV,2,2,05,36,53,056,36,7*43
$GAGSV,2,1,07,02,46,153,26,11,06,046,18,15,16,220,25,27,21,311,30,1*7D
$GAGSV,2,2,07,30,69,277,39,34,67,204,38,36,53,056,32,1*4C
$GBGSV,3,1,11,06,11,333,24,14,09,027,22,16,16,327,25,27,68,061,33,1*73
$GBGSV,3,2,11,28,22,070,30,30,55,261,46,33,17,051,31,36,45,278,42,1*72
$GBGSV,3,3,11,39,19,321,31,41,17,101,35,45,13,322,31,1*41
$GBGSV,2,1,08,27,68,061,38,28,22,070,35,30,55,261,46,33,17,051,37,5*77
$GBGSV,2,2,08,36,45,278,42,39,19,321,27,41,17,101,30,45,13,322,30,5*71
$GQGSV,1,1,00,1*65
$GQGSV,1,1,00,8*6C
$GNGGA,222410.000,4911.280891,N,12307.016608,W,2,36,0.48,4.398,M,-16.830,M,,*43
$GNRMC,222410.000,A,4911.280891,N,12307.016608,W,0.015,082.25,150325,,,D,V*2A
$GNGLL,4911.280891,N,12307.016608,W,222410.000,A,D*5E
$GNVTG,082.25,T,,M,0.015,N,0.028,K,D*25
$GNGSA,A,3,05,06,11,12,20,25,28,29,31,,,,0.82,0.48,0.66,1*01
$GNGSA,A,3,65,66,72,73,79,80,81,82,88,,,,0.82,0.48,0.66,2*03
$GNGSA,A,3,02,27,30,34,36,11,15,,,,,,0.82,0.48,0.66,3*07
$GNGSA,A,3,06,14,16,27,28,30,33,36,39,41,45,,0.82,0.48,0.66,4*01
$GNGSA,A,3,,,,,,,,,,,,,0.82,0.48,0.66,5*03
$GPGSV,3,1,10,05,27,153,23,06,21,051,34,11,53,060,37,12,54,162,37,1*60
$GPGSV,3,2,10,20,48,111,44,25,69,250,43,28,23,297,40,29,43,281,44,1*67
$GPGSV,3,3,10,31,14,321,31,46,33,187,40,1*68
$GPGSV,1,1,04,06,21,051,40,11,53,060,35,25,69,250,44,28,23,297,27,8*67
$GLGSV,3,1,09,65,19,050,22,66,09,098,28,72,06,358,16,73,15,330,16,1*72
$GLGSV,3,2,09,79,41,186,32,80,61,285,40,81,61,032,29,82,58,265,45,1*72
$GLGSV,3,3,09,88,10,056,30,1*40
$GAGSV,2,1,05,02,46,153,25,27,21,311,29,30,69,277,41,34,67,204,43,7*77
$GAGSV,2,2,05,36,53,056,36,7*43
$GAGSV,2,1,07,02,46,153,25,11,06,046,18,15,16,220,26,27,21,311,29,1*75
$GAGSV,2,2,07,30,69,277,37,34,67,204,37,36,53,056,31,1*4E
$GBGSV,3,1,11,06,11,333,24,14,09,027,22,16,16,327,25,27,68,061,32,1*72
$GBGSV,3,2,11,28,22,070,30,30,55,261,46,33,17,051,32,36,45,278,42,1*71
$GBGSV,3,3,11,39,19,321,31,41,17,101,35,45,13,322,30,1*40
$GBGSV,2,1,08,27,68,061,38,28,22,070,35,30,55,261,45,33,17,051,36,5*75
$GBGSV,2,2,08,36,45,278,41,39,19,321,27,41,17,101,29,45,13,322,29,5*72
$GQGSV,1,1,00,1*65
$GQGSV,1,1,00,8*6C
$GNGGA,222411.000,4911.280890,N,12307.016610,W,2,36,0.49,4.397,M,-16.829,M,,*4C
$GNRMC,222411.000,A,4911.280890,N,12307.016610,W,0.002,082.25,150325,,,D,V*25
$GNGLL,4911.280890,N,12307.016610,W,222411.000,A,D*57
$GNVTG,082.25,T,,M,0.002,N,0.004,K,D*2D
$GNGSA,A,3,05,06,11,12,20,25,28,29,31,,,,0.83,0.49,0.67,1*00
$GNGSA,A,3,65,66,72,73,79,80,81,82,88,,,,0.83,0.49,0.67,2*02
$GNGSA,A,3,02,27,30,34,36,11,15,,,,,,0.83,0.49,0.67,3*06
$GNGSA,A,3,06,14,16,27,28,30,33,36,39,41,45,,0.83,0.49,0.67,4*00
$GNGSA,A,3,,,,,,,,,,,,,0.83,0.49,0.67,5*02
$GPGSV,3,1,10,05,27,153,21,06,21,051,35,11,53,060,35,12,54,162,37,1*61
$GPGSV,3,2,10,20,48,111,44,25,69,250,43,28,23,297,40,29,43,281,44,1*67
$GPGSV,3,3,10,31,14,321,30,46,33,187,40,1*69
$GPGSV,1,1,04,06,21,051,40,11,53,060,36,25,69,250,43,28,23,297,26,8*62
$GLGSV,3,1,09,65,19,050,23,66,09,098,27,72,06,358,14,73,15,330,17,1*7F
$GLGSV,3,2,09,79,41,186,32,80,61,285,41,81,61,032,29,82,58,265,45,1*73
$GLGSV,3,3,09,88,10,056,29,1*48
$GAGSV,2,1,05,02,46,153,27,27,21,311,29,30,69,277,41,34,67,204,42,7*74
$GAGSV,2,2,05,36,53,056,35,7*40
$GAGSV,2,1,07,02,46,153,24,11,06,046,17,15,16,220,26,27,21,311,30,1*73
$GAGSV,2,2,07,30,69,277,38,34,67,204,37,36,53,056,31,1*41
$GBGSV,3,1,11,06,11,333,23,14,09,027,21,16,16,327,25,27,68,061,32,1*76
$GBGSV,3,2,11,28,22,070,30,30,55,261,46,33,17,051,33,36,45,278,42,1*70
$GBGSV,3,3,11,39,19,321,31,41,17,101,35,45,13,322,31,1*41
$GBGSV,2,1,08,27,68,061,37,28,22,070,35,30,55,261,45,33,17,051,36,5*7A
$GBGSV,2,2,08,36,45,278,42,39,19,321,26,41,17,101,29,45,13,322,30,5*78
$GQGSV,1,1,00,1*65
$GQGSV,1,1,00,8*6C
$GNGGA,222412.000,4911.280888,N,12307.016608,W,2,36,0.48,4.395,M,-16.829,M,,*4C
$GNRMC,222412.000,A,4911.280888,N,12307.016608,W,0.007,082.25,150325,,,D,V*23
$GNGLL,4911.280888,N,12307.016608,W,222412.000,A,D*54
$GNVTG,082.25,T,,M,0.007,N,0.013,K,D*2E
$GNGSA,A,3,05,06,11,12,20,25,28,29,31,,,,0.82,0.48,0.66,1*01
$GNGSA,A,3,65,66,72,73,79,80,81,82,88,,,,0.82,0.48,0.66,2*03
$GNGSA,A,3,02,27,30,34,36,11,15,,,,,,0.82,0.48,0.66,3*07
$GNGSA,A,3,06,14,16,27,28,30,33,36,39,41,45,,0.82,0.48,0.66,4*01
$GNGSA,A,3,,,,,,,,,,,,,0.82,0.48,0.66,5*03
$GPGSV,3,1,10,05,27,153,23,06,21,051,35,11,52,060,36,12,54,162,37,1*61
$GPGSV,3,2,10,20,48,111,44,25,69,250,44,28,23,297,40,29,43,281,44,1*60
$GPGSV,3,3,10,31,14,321,30,46,33,187,40,1*69
$GPGSV,1,1,04,06,21,051,40,11,52,060,35,25,69,250,44,28,23,297,27,8*66
$GLGSV,3,1,09,65,19,050,23,66,09,098,27,72,06,358,17,73,15,330,17,1*7C
$GLGSV,3,2,09,79,41,186,32,80,61,285,41,81,61,032,28,82,58,265,45,1*72
$GLGSV,3,3,09,88,10,056,30,1*40
$GAGSV,2,1,05,02,46,153,27,27,21,311,28,30,69,277,41,34,67,204,42,7*75
$GAGSV,2,2,05,36,53,056,36,7*43
$GAGSV,2,1,07,02,46,153,24,11,06,046,17,15,16,220,26,27,21,311,30,1*73
$GAGSV,2,2,07,30,69,277,38,34,67,204,37,36,53,056,32,1*42
$GBGSV,3,1,11,06,11,333,24,14,09,027,22,16,16,327,24,27,68,061,32,1*73
$GBGSV,3,2,11,28,22,070,30,30,55,261,46,33,17,051,33,36,45,278,42,1*70
$GBGSV,3,3,11,39,19,321,30,41,17,101,35,45,13,322,32,1*43
$GBGSV,2,1,08,27,68,061,37,28,22,070,36,30,55,261,45,33,17,051,36,5*79
$GBGSV,2,2,08,36,45,278,41,39,19,321,25,41,17,101,29,45,13,322,29,5*70
$GQGSV,1,1,00,1*65
$GQGSV,1,1,00,8*6C
$GNGGA,222413.000,4911.280887,N,12307.016606,W,2,36,0.50,4.394,M,-16.829,M,,*44
$GNRMC,222413.000,A,4911.280887,N,12307.016606,W,0.007,082.25,150325,,,D,V*23
$GNGLL,4911.280887,N,12307.016606,W,222413.000,A,D*54
$GNVTG,082.25,T,,M,0.007,N,0.012,K,D*2F
$GNGSA,A,3,05,06,11,12,20,25,28,29,31,,,,0.83,0.50,0.66,1*09
$GNGSA,A,3,65,66,72,73,79,80,81,82,88,,,,0.83,0.50,0.66,2*0B
$GNGSA,A,3,02,27,30,34,36,11,15,,,,,,0.83,0.50,0.66,3*0F
$GNGSA,A,3,06,14,16,27,28,30,33,36,39,41,45,,0.83,0.50,0.66,4*09
$GNGSA,A,3,,,,,,,,,,,,,0.83,0.50,0.66,5*0B
$GPGSV,3,1,10,05,27,153,21,06,21,051,35,11,52,060,36,12,54,162,37,1*63
$GPGSV,3,2,10,20,48,111,44,25,69,250,43,28,23,297,40,29,43,281,44,1*67
$GPGSV,3,3,10,31,14,321,28,46,33,187,40,1*60
$GPGSV,1,1,04,06,21,051,40,11,52,060,35,25,69,250,43,28,23,297,25,8*63
$GLGSV,3,1,09,65,19,050,22,66,09,098,27,72,06,358,17,73,15,330,17,1*7D
$GLGSV,3,2,09,79,41,186,32,80,61,285,41,81,61,032,28,82,58,265,44,1*73
$GLGSV,3,3,09,88,10,056,30,1*40
$GAGSV,2,1,05,02,46,153,25,27,21,311,29,30,69,277,41,34,67,204,42,7*76
$GAGSV,2,2,05,36,53,056,37,7*42
$GAGSV,2,1,07,02,46,153,25,11,06,046,17,15,16,220,26,27,21,311,29,1*7A
$GAGSV,2,2,07,30,69,277,37,34,67,204,36,36,53,056,30,1*4E
$GBGSV,3,1,11,06,11,333,24,14,09,027,24,16,16,327,25,27,68,061,33,1*75
$GBGSV,3,2,11,28,22,070,30,30,55,261,46,33,17,051,33,36,45,278,42,1*70
$GBGSV,3,3,11,39,19,321,32,41,17,101,35,45,13,322,30,1*43
$GBGSV,2,1,08,27,68,061,37,28,22,070,35,30,55,261,45,33,17,051,36,5*7A
$GBGSV,2,2,08,36,45,278,41,39,19,321,25,41,17,101,29,45,13,322,29,5*70
$GQGSV,1,1,00,1*65
$GQGSV,1,1,00,8*6C
